{
  "summary": {
    "query": "batam",
    "queryType": "NON_NEAR",
    "queryTime": 217,
    "numResults": 100,
    "offset": 0,
    "totalResults": 100,
    "fuzzyLevel": 1
  },
  "results": [
    {
      "type": "POI",
      "id": "6LAwzbT8JlpEg_oY5M1JoQ",
      "score": 2.1454398632,
      "info": "search:ta:360006006930424-ID",
      "poi": {
        "name": "Batam",
        "categorySet": [
          {
            "id": 7376
          }
        ],
        "categories": [
          "important tourist attraction"
        ],
        "classifications": [
          {
            "code": "IMPORTANT_TOURIST_ATTRACTION",
            "names": [
              {
                "nameLocale": "en-US",
                "name": "important tourist attraction"
              }
            ]
          }
        ]
      },
      "address": {
        "streetName": "Tlk. Tering",
        "municipalitySubdivision": "Batam Kota",
        "municipality": "Batam",
        "municipalitySecondarySubdivision": "Teluk Tering",
        "countrySubdivision": "Kepulauan Riau",
        "countrySubdivisionName": "Kepulauan Riau",
        "countrySubdivisionCode": "KR",
        "postalCode": "29444",
        "countryCode": "ID",
        "country": "Indonesia",
        "countryCodeISO3": "IDN",
        "freeformAddress": "Tlk. Tering, Batam Kota Sub District, Batam District, Kepulauan Riau 29444 (Jalan Engku Putri)",
        "localName": "Batam"
      },
      "position": {
        "lat": 1.1301,
        "lon": 104.0477
      },
      "viewport": {
        "topLeftPoint": {
          "lat": 1.131,
          "lon": 104.0468
        },
        "btmRightPoint": {
          "lat": 1.1292,
          "lon": 104.0486
        }
      },
      "entryPoints": [
        {
          "type": "main",
          "position": {
            "lat": 1.13028,
            "lon": 104.04748
          }
        }
      ],
      "dataSources": {
        "geometry": {
          "id": ""
        }
      }
    },
    {
      "type": "POI",
      "id": "W5ZOKhdQpBLhXV7UdlkOvQ",
      "score": 2.10790205,
      "info": "search:ta:360008000015950-ID",
      "poi": {
        "name": "Hang Nadiem Batam",
        "categorySet": [
          {
            "id": 7383002
          }
        ],
        "categories": [
          "airport",
          "public authority"
        ],
        "classifications": [
          {
            "code": "AIRPORT",
            "names": [
              {
                "nameLocale": "en-US",
                "name": "airport"
              },
              {
                "nameLocale": "en-US",
                "name": "public authority"
              }
            ]
          }
        ]
      },
      "address": {
        "streetName": "Jalan Bandara Hang Nadim",
        "municipalitySubdivision": "Nongsa",
        "municipality": "Batam",
        "municipalitySecondarySubdivision": "Batu Besar",
        "countrySubdivision": "Kepulauan Riau",
        "countrySubdivisionName": "Kepulauan Riau",
        "countrySubdivisionCode": "KR",
        "postalCode": "29465",
        "countryCode": "ID",
        "country": "Indonesia",
        "countryCodeISO3": "IDN",
        "freeformAddress": "Jalan Bandara Hang Nadim, Nongsa Sub District, Batam District, Kepulauan Riau 29465",
        "localName": "Batam"
      },
      "position": {
        "lat": 1.123439,
        "lon": 104.115772
      },
      "viewport": {
        "topLeftPoint": {
          "lat": 1.14483,
          "lon": 104.09987
        },
        "btmRightPoint": {
          "lat": 1.09961,
          "lon": 104.13871
        }
      },
      "entryPoints": [
        {
          "type": "main",
          "position": {
            "lat": 1.12422,
            "lon": 104.11576
          }
        },
        {
          "type": "minor",
          "position": {
            "lat": 1.12322,
            "lon": 104.11489
          }
        }
      ],
      "dataSources": {
        "geometry": {
          "id": "00004944-3600-3c00-0000-00005ae5af75"
        }
      }
    },
    {
      "type": "POI",
      "id": "ACEORcKUFLgKfo-VBGhNEw",
      "score": 2.1037807465,
      "info": "search:ta:360006006191252-ID",
      "poi": {
        "name": "Batam Forest Top",
        "categorySet": [
          {
            "id": 7376
          }
        ],
        "categories": [
          "important tourist attraction"
        ],
        "classifications": [
          {
            "code": "IMPORTANT_TOURIST_ATTRACTION",
            "names": [
              {
                "nameLocale": "en-US",
                "name": "important tourist attraction"
              }
            ]
          }
        ]
      },
      "address": {
        "streetName": "Bukit Harimau",
        "municipalitySubdivision": "Sekupang",
        "municipality": "Batam",
        "municipalitySecondarySubdivision": "Tanjung Pinggir",
        "countrySubdivision": "Kepulauan Riau",
        "countrySubdivisionName": "Kepulauan Riau",
        "countrySubdivisionCode": "KR",
        "postalCode": "29424",
        "countryCode": "ID",
        "country": "Indonesia",
        "countryCodeISO3": "IDN",
        "freeformAddress": "Bukit Harimau, Sekupang Sub District, Batam District, Kepulauan Riau 29424",
        "localName": "Batam"
      },
      "position": {
        "lat": 1.1188,
        "lon": 103.9541
      },
      "viewport": {
        "topLeftPoint": {
          "lat": 1.1197,
          "lon": 103.9532
        },
        "btmRightPoint": {
          "lat": 1.1179,
          "lon": 103.955
        }
      },
      "entryPoints": [
        {
          "type": "main",
          "position": {
            "lat": 1.11868,
            "lon": 103.95428
          }
        }
      ],
      "dataSources": {
        "geometry": {
          "id": ""
        }
      }
    },
    {
      "type": "POI",
      "id": "Lp08WnmDyvob9fVaUOS42Q",
      "score": 2.1037807465,
      "info": "search:ta:360006006185506-ID",
      "poi": {
        "name": "Lembah Pelangi Batam",
        "phone": "+62 813-8888-906",
        "categorySet": [
          {
            "id": 7376
          }
        ],
        "categories": [
          "important tourist attraction"
        ],
        "classifications": [
          {
            "code": "IMPORTANT_TOURIST_ATTRACTION",
            "names": [
              {
                "nameLocale": "en-US",
                "name": "important tourist attraction"
              }
            ]
          }
        ]
      },
      "address": {
        "streetName": "Jl. Ir. Sutami Dekat Perumahan Acasia",
        "municipalitySubdivision": "Sekupang",
        "municipality": "Batam",
        "municipalitySecondarySubdivision": "Tanjung Pinggir",
        "countrySubdivision": "Kepulauan Riau",
        "countrySubdivisionName": "Kepulauan Riau",
        "countrySubdivisionCode": "KR",
        "postalCode": "29442",
        "countryCode": "ID",
        "country": "Indonesia",
        "countryCodeISO3": "IDN",
        "freeformAddress": "Jl. Ir. Sutami Dekat Perumahan Acasia, Sekupang Sub District, Batam District, Kepulauan Riau 29442",
        "localName": "Batam"
      },
      "position": {
        "lat": 1.1189,
        "lon": 103.9542
      },
      "viewport": {
        "topLeftPoint": {
          "lat": 1.1198,
          "lon": 103.9533
        },
        "btmRightPoint": {
          "lat": 1.118,
          "lon": 103.9551
        }
      },
      "entryPoints": [
        {
          "type": "main",
          "position": {
            "lat": 1.1188,
            "lon": 103.95436
          }
        }
      ],
      "dataSources": {
        "geometry": {
          "id": ""
        }
      }
    },
    {
      "type": "POI",
      "id": "hj3rx-clDgjEMKcJ_fwo3g",
      "score": 2.1037807465,
      "info": "search:ta:360006007718737-ID",
      "poi": {
        "name": "Agribisnis Bp Batam",
        "phone": "+62 813-7251-504",
        "categorySet": [
          {
            "id": 7376
          }
        ],
        "categories": [
          "important tourist attraction"
        ],
        "classifications": [
          {
            "code": "IMPORTANT_TOURIST_ATTRACTION",
            "names": [
              {
                "nameLocale": "en-US",
                "name": "important tourist attraction"
              }
            ]
          }
        ]
      },
      "address": {
        "streetName": "Tj. Riau",
        "municipalitySubdivision": "Sekupang",
        "municipality": "Batam",
        "municipalitySecondarySubdivision": "Tanjung Riau",
        "countrySubdivision": "Kepulauan Riau",
        "countrySubdivisionName": "Kepulauan Riau",
        "countrySubdivisionCode": "KR",
        "postalCode": "29425",
        "countryCode": "ID",
        "country": "Indonesia",
        "countryCodeISO3": "IDN",
        "freeformAddress": "Tj. Riau, Sekupang Sub District, Batam District, Kepulauan Riau 29425 (Komplek Pemotongan Hewan)",
        "localName": "Batam"
      },
      "position": {
        "lat": 1.0786,
        "lon": 103.9521
      },
      "viewport": {
        "topLeftPoint": {
          "lat": 1.0795,
          "lon": 103.9512
        },
        "btmRightPoint": {
          "lat": 1.0777,
          "lon": 103.953
        }
      },
      "entryPoints": [
        {
          "type": "main",
          "position": {
            "lat": 1.07872,
            "lon": 103.95198
          }
        }
      ],
      "dataSources": {
        "geometry": {
          "id": ""
        }
      }
    },
    {
      "type": "POI",
      "id": "jGLGeTIzsG99R9kWUSHu3w",
      "score": 2.1037807465,
      "info": "search:ta:360006006495939-ID",
      "poi": {
        "name": "Taman Rusa Batam",
        "categorySet": [
          {
            "id": 7376
          }
        ],
        "categories": [
          "important tourist attraction"
        ],
        "classifications": [
          {
            "code": "IMPORTANT_TOURIST_ATTRACTION",
            "names": [
              {
                "nameLocale": "en-US",
                "name": "important tourist attraction"
              }
            ]
          }
        ]
      },
      "address": {
        "streetName": "Indarung",
        "municipalitySubdivision": "Lubuk Kilangan",
        "municipality": "Padang",
        "municipalitySecondarySubdivision": "Indarung",
        "countrySubdivision": "Sumatera Barat",
        "countrySubdivisionName": "Sumatera Barat",
        "countrySubdivisionCode": "SB",
        "postalCode": "25168",
        "countryCode": "ID",
        "country": "Indonesia",
        "countryCodeISO3": "IDN",
        "freeformAddress": "Indarung, Lubuk Kilangan Sub District, Padang District, Sumatera Barat 25168",
        "localName": "Padang"
      },
      "position": {
        "lat": -0.9485,
        "lon": 100.484
      },
      "viewport": {
        "topLeftPoint": {
          "lat": -0.9476,
          "lon": 100.4831
        },
        "btmRightPoint": {
          "lat": -0.9494,
          "lon": 100.4849
        }
      },
      "entryPoints": [
        {
          "type": "main",
          "position": {
            "lat": -0.94861,
            "lon": 100.48398
          }
        }
      ],
      "dataSources": {
        "geometry": {
          "id": ""
        }
      }
    },
    {
      "type": "POI",
      "id": "7QeZzws6eAKo_WwRkt_UsA",
      "score": 2.1037807465,
      "info": "search:ta:360006003501774-ID",
      "poi": {
        "name": "Lake Daeng Batam",
        "categorySet": [
          {
            "id": 7376
          }
        ],
        "categories": [
          "important tourist attraction"
        ],
        "classifications": [
          {
            "code": "IMPORTANT_TOURIST_ATTRACTION",
            "names": [
              {
                "nameLocale": "en-US",
                "name": "important tourist attraction"
              }
            ]
          }
        ]
      },
      "address": {
        "streetName": "Jl. Letjend Suprapto",
        "municipalitySubdivision": "Sei Beduk",
        "municipality": "Batam",
        "municipalitySecondarySubdivision": "Muka Kuning",
        "countrySubdivision": "Kepulauan Riau",
        "countrySubdivisionName": "Kepulauan Riau",
        "countrySubdivisionCode": "KR",
        "postalCode": "29433",
        "countryCode": "ID",
        "country": "Indonesia",
        "countryCodeISO3": "IDN",
        "freeformAddress": "Jl. Letjend Suprapto, Sei Beduk Sub District, Batam District, Kepulauan Riau 29433",
        "localName": "Batam"
      },
      "position": {
        "lat": 1.056524,
        "lon": 104.01063
      },
      "viewport": {
        "topLeftPoint": {
          "lat": 1.05742,
          "lon": 104.00973
        },
        "btmRightPoint": {
          "lat": 1.05562,
          "lon": 104.01153
        }
      },
      "entryPoints": [
        {
          "type": "main",
          "position": {
            "lat": 1.05658,
            "lon": 104.01056
          }
        }
      ],
      "dataSources": {
        "geometry": {
          "id": ""
        }
      }
    },
    {
      "type": "POI",
      "id": "cvzsomxyKGD_jyN1R3h8vA",
      "score": 2.1037807465,
      "info": "search:ta:360006006933671-ID",
      "poi": {
        "name": "Batam Adventure Park",
        "phone": "+62 813-8215-7974",
        "categorySet": [
          {
            "id": 7376
          }
        ],
        "categories": [
          "important tourist attraction"
        ],
        "classifications": [
          {
            "code": "IMPORTANT_TOURIST_ATTRACTION",
            "names": [
              {
                "nameLocale": "en-US",
                "name": "important tourist attraction"
              }
            ]
          }
        ]
      },
      "address": {
        "streetName": "Jalan Jenderal Sudirman",
        "municipalitySubdivision": "Batam Kota",
        "municipality": "Batam",
        "municipalitySecondarySubdivision": "Taman Baloi",
        "countrySubdivision": "Kepulauan Riau",
        "countrySubdivisionName": "Kepulauan Riau",
        "countrySubdivisionCode": "KR",
        "postalCode": "29432",
        "countryCode": "ID",
        "country": "Indonesia",
        "countryCodeISO3": "IDN",
        "freeformAddress": "Jalan Jenderal Sudirman, Batam Kota Sub District, Batam District, Kepulauan Riau 29432",
        "localName": "Batam"
      },
      "position": {
        "lat": 1.103824,
        "lon": 104.037554
      },
      "viewport": {
        "topLeftPoint": {
          "lat": 1.10472,
          "lon": 104.03665
        },
        "btmRightPoint": {
          "lat": 1.10292,
          "lon": 104.03845
        }
      },
      "entryPoints": [
        {
          "type": "main",
          "position": {
            "lat": 1.10371,
            "lon": 104.03751
          }
        }
      ],
      "dataSources": {
        "geometry": {
          "id": ""
        }
      }
    },
    {
      "type": "POI",
      "id": "IY9W9ot-Umc4f2EqcCZLtQ",
      "score": 2.0835521221,
      "info": "search:ta:360006003541925-ID",
      "poi": {
        "name": "Sekilak Beach Tourism Batam",
        "categorySet": [
          {
            "id": 7376
          }
        ],
        "categories": [
          "important tourist attraction"
        ],
        "classifications": [
          {
            "code": "IMPORTANT_TOURIST_ATTRACTION",
            "names": [
              {
                "nameLocale": "en-US",
                "name": "important tourist attraction"
              }
            ]
          }
        ]
      },
      "address": {
        "streetName": "Batu Besar",
        "municipalitySubdivision": "Nongsa",
        "municipality": "Batam",
        "municipalitySecondarySubdivision": "Batu Besar",
        "countrySubdivision": "Kepulauan Riau",
        "countrySubdivisionName": "Kepulauan Riau",
        "countrySubdivisionCode": "KR",
        "postalCode": "29466",
        "countryCode": "ID",
        "country": "Indonesia",
        "countryCodeISO3": "IDN",
        "freeformAddress": "Batu Besar, Nongsa Sub District, Batam District, Kepulauan Riau 29466",
        "localName": "Batam"
      },
      "position": {
        "lat": 1.142447,
        "lon": 104.147508
      },
      "viewport": {
        "topLeftPoint": {
          "lat": 1.14335,
          "lon": 104.14661
        },
        "btmRightPoint": {
          "lat": 1.14155,
          "lon": 104.14841
        }
      },
      "entryPoints": [
        {
          "type": "main",
          "position": {
            "lat": 1.14254,
            "lon": 104.14753
          }
        }
      ],
      "dataSources": {
        "geometry": {
          "id": ""
        }
      }
    },
    {
      "type": "POI",
      "id": "-V32OKHt5P-5Zse4aM0SvA",
      "score": 2.0835521221,
      "info": "search:ta:360007000108789-ID",
      "poi": {
        "name": "Welcome To Batam Monument",
        "phone": "+62 813-6503-6226",
        "categorySet": [
          {
            "id": 7376
          }
        ],
        "categories": [
          "important tourist attraction"
        ],
        "classifications": [
          {
            "code": "IMPORTANT_TOURIST_ATTRACTION",
            "names": [
              {
                "nameLocale": "en-US",
                "name": "important tourist attraction"
              }
            ]
          }
        ],
        "url": "bet88indo.org"
      },
      "address": {
        "streetName": "Perumahan Batam Park",
        "municipalitySubdivision": "Lubuk Baja",
        "municipality": "Batam",
        "municipalitySecondarySubdivision": "Lubuk Baja Kota",
        "countrySubdivision": "Kepulauan Riau",
        "countrySubdivisionName": "Kepulauan Riau",
        "countrySubdivisionCode": "KR",
        "postalCode": "29444",
        "countryCode": "ID",
        "country": "Indonesia",
        "countryCodeISO3": "IDN",
        "freeformAddress": "Perumahan Batam Park, Lubuk Baja Sub District, Batam District, Kepulauan Riau 29444",
        "localName": "Batam"
      },
      "position": {
        "lat": 1.141339,
        "lon": 104.011077
      },
      "viewport": {
        "topLeftPoint": {
          "lat": 1.14224,
          "lon": 104.01018
        },
        "btmRightPoint": {
          "lat": 1.14044,
          "lon": 104.01198
        }
      },
      "entryPoints": [
        {
          "type": "main",
          "position": {
            "lat": 1.14126,
            "lon": 104.0112
          }
        }
      ],
      "dataSources": {
        "geometry": {
          "id": ""
        }
      }
    },
    {
      "type": "POI",
      "id": "KyAMq1eL2ERjEfkzLI3XuA",
      "score": 2.0835521221,
      "info": "search:ta:360006006937868-ID",
      "poi": {
        "name": "Mega Wisata Ocarina Batam",
        "categorySet": [
          {
            "id": 7376
          }
        ],
        "categories": [
          "important tourist attraction"
        ],
        "classifications": [
          {
            "code": "IMPORTANT_TOURIST_ATTRACTION",
            "names": [
              {
                "nameLocale": "en-US",
                "name": "important tourist attraction"
              }
            ]
          }
        ]
      },
      "address": {
        "streetName": "Sadai",
        "municipalitySubdivision": "Bengkong",
        "municipality": "Batam",
        "municipalitySecondarySubdivision": "Sadai",
        "countrySubdivision": "Kepulauan Riau",
        "countrySubdivisionName": "Kepulauan Riau",
        "countrySubdivisionCode": "KR",
        "postalCode": "29444",
        "countryCode": "ID",
        "country": "Indonesia",
        "countryCodeISO3": "IDN",
        "freeformAddress": "Sadai, Bengkong Sub District, Batam District, Kepulauan Riau 29444",
        "localName": "Batam"
      },
      "position": {
        "lat": 1.1527,
        "lon": 104.0554
      },
      "viewport": {
        "topLeftPoint": {
          "lat": 1.1536,
          "lon": 104.0545
        },
        "btmRightPoint": {
          "lat": 1.1518,
          "lon": 104.0563
        }
      },
      "entryPoints": [
        {
          "type": "main",
          "position": {
            "lat": 1.15287,
            "lon": 104.0554
          }
        }
      ],
      "dataSources": {
        "geometry": {
          "id": ""
        }
      }
    },
    {
      "type": "POI",
      "id": "VuTU1185y7HNJCQhrmA_6w",
      "score": 2.0835521221,
      "info": "search:ta:360006004059280-ID",
      "poi": {
        "name": "Batam View Beach Resort",
        "phone": "+62 627 78761746",
        "categorySet": [
          {
            "id": 7376
          }
        ],
        "categories": [
          "important tourist attraction"
        ],
        "classifications": [
          {
            "code": "IMPORTANT_TOURIST_ATTRACTION",
            "names": [
              {
                "nameLocale": "en-US",
                "name": "important tourist attraction"
              }
            ]
          }
        ]
      },
      "address": {
        "streetName": "Jl. Hang Lekiu",
        "municipalitySubdivision": "Nongsa",
        "municipality": "Batam",
        "municipalitySecondarySubdivision": "Sambau",
        "countrySubdivision": "Kepulauan Riau",
        "countrySubdivisionName": "Kepulauan Riau",
        "countrySubdivisionCode": "KR",
        "postalCode": "29465",
        "countryCode": "ID",
        "country": "Indonesia",
        "countryCodeISO3": "IDN",
        "freeformAddress": "Jl. Hang Lekiu, Nongsa Sub District, Batam District, Kepulauan Riau 29465",
        "localName": "Batam"
      },
      "position": {
        "lat": 1.184914,
        "lon": 104.074639
      },
      "viewport": {
        "topLeftPoint": {
          "lat": 1.18581,
          "lon": 104.07374
        },
        "btmRightPoint": {
          "lat": 1.18401,
          "lon": 104.07554
        }
      },
      "entryPoints": [
        {
          "type": "main",
          "position": {
            "lat": 1.18488,
            "lon": 104.07456
          }
        }
      ],
      "dataSources": {
        "geometry": {
          "id": ""
        }
      }
    },
    {
      "type": "POI",
      "id": "bSOrIAl3CK7x2QMl35mBKA",
      "score": 2.0835521221,
      "info": "search:ta:360006006933673-ID",
      "poi": {
        "name": "Welcome To Batam Monument",
        "categorySet": [
          {
            "id": 7376
          }
        ],
        "categories": [
          "important tourist attraction"
        ],
        "classifications": [
          {
            "code": "IMPORTANT_TOURIST_ATTRACTION",
            "names": [
              {
                "nameLocale": "en-US",
                "name": "important tourist attraction"
              }
            ]
          }
        ]
      },
      "address": {
        "streetName": "Welcome To Batam Monument",
        "municipalitySubdivision": "Batam Kota",
        "municipality": "Batam",
        "municipalitySecondarySubdivision": "Teluk Tering",
        "countrySubdivision": "Kepulauan Riau",
        "countrySubdivisionName": "Kepulauan Riau",
        "countrySubdivisionCode": "KR",
        "postalCode": "29444",
        "countryCode": "ID",
        "country": "Indonesia",
        "countryCodeISO3": "IDN",
        "freeformAddress": "Welcome To Batam Monument, Batam Kota Sub District, Batam District, Kepulauan Riau 29444",
        "localName": "Batam"
      },
      "position": {
        "lat": 1.1223,
        "lon": 104.0534
      },
      "viewport": {
        "topLeftPoint": {
          "lat": 1.12361,
          "lon": 104.05209
        },
        "btmRightPoint": {
          "lat": 1.12099,
          "lon": 104.05471
        }
      },
      "entryPoints": [
        {
          "type": "main",
          "position": {
            "lat": 1.12337,
            "lon": 104.05416
          }
        }
      ],
      "dataSources": {
        "geometry": {
          "id": ""
        }
      }
    },
    {
      "type": "POI",
      "id": "TF2bmrlkji3lokQU4TCN1Q",
      "score": 2.0835521221,
      "info": "search:ta:360006003372079-ID",
      "poi": {
        "name": "Lembah Guci Barelang Batam",
        "categorySet": [
          {
            "id": 7376
          }
        ],
        "categories": [
          "important tourist attraction"
        ],
        "classifications": [
          {
            "code": "IMPORTANT_TOURIST_ATTRACTION",
            "names": [
              {
                "nameLocale": "en-US",
                "name": "important tourist attraction"
              }
            ]
          }
        ]
      },
      "address": {
        "streetName": "Kec. Sagulung",
        "municipalitySubdivision": "Sagulung",
        "municipality": "Batam",
        "municipalitySecondarySubdivision": "Tembesi",
        "countrySubdivision": "Kepulauan Riau",
        "countrySubdivisionName": "Kepulauan Riau",
        "countrySubdivisionCode": "KR",
        "postalCode": "29472",
        "countryCode": "ID",
        "country": "Indonesia",
        "countryCodeISO3": "IDN",
        "freeformAddress": "Kec. Sagulung, Sagulung Sub District, Batam District, Kepulauan Riau 29472",
        "localName": "Batam"
      },
      "position": {
        "lat": 0.996208,
        "lon": 104.032613
      },
      "viewport": {
        "topLeftPoint": {
          "lat": 0.99711,
          "lon": 104.03171
        },
        "btmRightPoint": {
          "lat": 0.99531,
          "lon": 104.03351
        }
      },
      "entryPoints": [
        {
          "type": "main",
          "position": {
            "lat": 0.99616,
            "lon": 104.03254
          }
        }
      ],
      "dataSources": {
        "geometry": {
          "id": ""
        }
      }
    },
    {
      "type": "POI",
      "id": "g-1sYKAzGexCnmI2Q4blOg",
      "score": 2.0637090206,
      "info": "search:ta:360006007718735-ID",
      "poi": {
        "name": "Wisata Air Batam Cableski Park",
        "phone": "+62 778 381485",
        "categorySet": [
          {
            "id": 7376
          }
        ],
        "categories": [
          "important tourist attraction"
        ],
        "classifications": [
          {
            "code": "IMPORTANT_TOURIST_ATTRACTION",
            "names": [
              {
                "nameLocale": "en-US",
                "name": "important tourist attraction"
              }
            ]
          }
        ],
        "url": "www.cable-ski.com/index.php"
      },
      "address": {
        "streetName": "Jalan Tanjung Uncang",
        "municipalitySubdivision": "Sekupang",
        "municipality": "Batam",
        "municipalitySecondarySubdivision": "Tanjung Riau",
        "countrySubdivision": "Kepulauan Riau",
        "countrySubdivisionName": "Kepulauan Riau",
        "countrySubdivisionCode": "KR",
        "postalCode": "29422",
        "countryCode": "ID",
        "country": "Indonesia",
        "countryCodeISO3": "IDN",
        "freeformAddress": "Jalan Tanjung Uncang, Sekupang Sub District, Batam District, Kepulauan Riau 29422",
        "localName": "Batam"
      },
      "position": {
        "lat": 1.083316,
        "lon": 103.939659
      },
      "viewport": {
        "topLeftPoint": {
          "lat": 1.08422,
          "lon": 103.93876
        },
        "btmRightPoint": {
          "lat": 1.08242,
          "lon": 103.94056
        }
      },
      "entryPoints": [
        {
          "type": "main",
          "position": {
            "lat": 1.08335,
            "lon": 103.93958
          }
        }
      ],
      "dataSources": {
        "geometry": {
          "id": ""
        }
      }
    },
    {
      "type": "POI",
      "id": "p0qiN55OSjVJpegQhPBYOw",
      "score": 2.0239999294,
      "info": "search:ta:360006001908051-ID",
      "poi": {
        "name": "Batam",
        "phone": "+62 778 3851049",
        "categorySet": [
          {
            "id": 7332005
          }
        ],
        "categories": [
          "market",
          "supermarkets hypermarkets"
        ],
        "classifications": [
          {
            "code": "MARKET",
            "names": [
              {
                "nameLocale": "en-US",
                "name": "supermarkets hypermarkets"
              },
              {
                "nameLocale": "en-US",
                "name": "market"
              }
            ]
          }
        ]
      },
      "address": {
        "streetName": "Taman Baloi",
        "municipalitySubdivision": "Batam Kota",
        "municipality": "Batam",
        "municipalitySecondarySubdivision": "Taman Baloi",
        "countrySubdivision": "Kepulauan Riau",
        "countrySubdivisionName": "Kepulauan Riau",
        "countrySubdivisionCode": "KR",
        "postalCode": "29444",
        "countryCode": "ID",
        "country": "Indonesia",
        "countryCodeISO3": "IDN",
        "freeformAddress": "Taman Baloi, Batam Kota Sub District, Batam District, Kepulauan Riau 29444",
        "localName": "Batam"
      },
      "position": {
        "lat": 1.1191,
        "lon": 104.025
      },
      "viewport": {
        "topLeftPoint": {
          "lat": 1.12,
          "lon": 104.0241
        },
        "btmRightPoint": {
          "lat": 1.1182,
          "lon": 104.0259
        }
      },
      "entryPoints": [
        {
          "type": "main",
          "position": {
            "lat": 1.1197,
            "lon": 104.02543
          }
        }
      ],
      "dataSources": {
        "geometry": {
          "id": ""
        }
      }
    },
    {
      "type": "POI",
      "id": "R6DclrXoo_6ZeyCG2DJSHg",
      "score": 2.0239999294,
      "info": "search:ta:360006005515666-ID",
      "poi": {
        "name": "Batam",
        "categorySet": [
          {
            "id": 9376002
          }
        ],
        "categories": [
          "café",
          "café/pub"
        ],
        "classifications": [
          {
            "code": "CAFE_PUB",
            "names": [
              {
                "nameLocale": "en-US",
                "name": "café/pub"
              },
              {
                "nameLocale": "en-US",
                "name": "café"
              }
            ]
          }
        ]
      },
      "address": {
        "streetName": "Kec. Batam Kota",
        "municipalitySubdivision": "Sei Beduk",
        "municipality": "Batam",
        "municipalitySecondarySubdivision": "Muka Kuning",
        "countrySubdivision": "Kepulauan Riau",
        "countrySubdivisionName": "Kepulauan Riau",
        "countrySubdivisionCode": "KR",
        "postalCode": "29433",
        "countryCode": "ID",
        "country": "Indonesia",
        "countryCodeISO3": "IDN",
        "freeformAddress": "Kec. Batam Kota, Sei Beduk Sub District, Batam District, Kepulauan Riau 29433",
        "localName": "Batam"
      },
      "position": {
        "lat": 1.064306,
        "lon": 104.017114
      },
      "viewport": {
        "topLeftPoint": {
          "lat": 1.06521,
          "lon": 104.01621
        },
        "btmRightPoint": {
          "lat": 1.06341,
          "lon": 104.01801
        }
      },
      "entryPoints": [
        {
          "type": "main",
          "position": {
            "lat": 1.06427,
            "lon": 104.01703
          }
        }
      ],
      "dataSources": {
        "geometry": {
          "id": ""
        }
      }
    },
    {
      "type": "POI",
      "id": "pACOJEETPQpCQIH8ENR6CA",
      "score": 2.0239999294,
      "info": "search:ta:360006003592634-ID",
      "poi": {
        "name": "Batam",
        "phone": "+62 877-3977-783",
        "categorySet": [
          {
            "id": 9361015
          }
        ],
        "categories": [
          "real estate agents",
          "shop"
        ],
        "classifications": [
          {
            "code": "SHOP",
            "names": [
              {
                "nameLocale": "en-US",
                "name": "shop"
              },
              {
                "nameLocale": "en-US",
                "name": "real estate agents"
              }
            ]
          }
        ]
      },
      "address": {
        "streetName": "Jl. Hang Tuah",
        "municipalitySubdivision": "Nongsa",
        "municipality": "Batam",
        "municipalitySecondarySubdivision": "Batu Besar",
        "countrySubdivision": "Kepulauan Riau",
        "countrySubdivisionName": "Kepulauan Riau",
        "countrySubdivisionCode": "KR",
        "postalCode": "29466",
        "countryCode": "ID",
        "country": "Indonesia",
        "countryCodeISO3": "IDN",
        "freeformAddress": "Jl. Hang Tuah, Nongsa Sub District, Batam District, Kepulauan Riau 29466",
        "localName": "Batam"
      },
      "position": {
        "lat": 1.1337,
        "lon": 104.1085
      },
      "viewport": {
        "topLeftPoint": {
          "lat": 1.1346,
          "lon": 104.1076
        },
        "btmRightPoint": {
          "lat": 1.1328,
          "lon": 104.1094
        }
      },
      "entryPoints": [
        {
          "type": "main",
          "position": {
            "lat": 1.13368,
            "lon": 104.10932
          }
        }
      ],
      "dataSources": {
        "geometry": {
          "id": ""
        }
      }
    },
    {
      "type": "POI",
      "id": "TJVa3s1tnmlQZaqm7B2IlA",
      "score": 2.0239999294,
      "info": "search:ta:360006006914007-ID",
      "poi": {
        "name": "Batam",
        "phone": "+62 853-7550-299",
        "categorySet": [
          {
            "id": 9361041
          }
        ],
        "categories": [
          "shop",
          "travel agents"
        ],
        "classifications": [
          {
            "code": "SHOP",
            "names": [
              {
                "nameLocale": "en-US",
                "name": "travel agents"
              },
              {
                "nameLocale": "en-US",
                "name": "shop"
              }
            ]
          }
        ]
      },
      "address": {
        "streetName": "Ruko Sampurna Blk. C No.12",
        "municipalitySubdivision": "Sei Beduk",
        "municipality": "Batam",
        "municipalitySecondarySubdivision": "Duriangkang",
        "countrySubdivision": "Kepulauan Riau",
        "countrySubdivisionName": "Kepulauan Riau",
        "countrySubdivisionCode": "KR",
        "postalCode": "29437",
        "countryCode": "ID",
        "country": "Indonesia",
        "countryCodeISO3": "IDN",
        "freeformAddress": "Ruko Sampurna Blk. C No.12, Sei Beduk Sub District, Batam District, Kepulauan Riau 29437",
        "localName": "Batam"
      },
      "position": {
        "lat": 1.026241,
        "lon": 104.062169
      },
      "viewport": {
        "topLeftPoint": {
          "lat": 1.02714,
          "lon": 104.06127
        },
        "btmRightPoint": {
          "lat": 1.02534,
          "lon": 104.06307
        }
      },
      "entryPoints": [
        {
          "type": "main",
          "position": {
            "lat": 1.02616,
            "lon": 104.0622
          }
        }
      ],
      "dataSources": {
        "geometry": {
          "id": ""
        }
      }
    },
    {
      "type": "POI",
      "id": "zaVpL4S7DkzWCASRKF9Nvw",
      "score": 2.0239999294,
      "info": "search:ta:360006005279055-ID",
      "poi": {
        "name": "Batam",
        "phone": "+62 822-8331-066",
        "categorySet": [
          {
            "id": 9361018
          }
        ],
        "categories": [
          "food drinks: bakers",
          "shop"
        ],
        "classifications": [
          {
            "code": "SHOP",
            "names": [
              {
                "nameLocale": "en-US",
                "name": "shop"
              },
              {
                "nameLocale": "en-US",
                "name": "food drinks: bakers"
              }
            ]
          }
        ]
      },
      "address": {
        "streetName": "Tj. Pinggir",
        "municipalitySubdivision": "Sekupang",
        "municipality": "Batam",
        "municipalitySecondarySubdivision": "Tanjung Pinggir",
        "countrySubdivision": "Kepulauan Riau",
        "countrySubdivisionName": "Kepulauan Riau",
        "countrySubdivisionCode": "KR",
        "postalCode": "29428",
        "countryCode": "ID",
        "country": "Indonesia",
        "countryCodeISO3": "IDN",
        "freeformAddress": "Tj. Pinggir, Sekupang Sub District, Batam District, Kepulauan Riau 29428",
        "localName": "Batam"
      },
      "position": {
        "lat": 1.1273,
        "lon": 103.9242
      },
      "viewport": {
        "topLeftPoint": {
          "lat": 1.1282,
          "lon": 103.9233
        },
        "btmRightPoint": {
          "lat": 1.1264,
          "lon": 103.9251
        }
      },
      "entryPoints": [
        {
          "type": "main",
          "position": {
            "lat": 1.12762,
            "lon": 103.92413
          }
        }
      ],
      "dataSources": {
        "geometry": {
          "id": ""
        }
      }
    },
    {
      "type": "POI",
      "id": "IEqumaRO8mnxcwed92sGtQ",
      "score": 2.0239999294,
      "info": "search:ta:360006007873832-ID",
      "poi": {
        "name": "Batam",
        "phone": "+62 812-7034-014",
        "categorySet": [
          {
            "id": 7363
          }
        ],
        "categories": [
          "community center"
        ],
        "classifications": [
          {
            "code": "COMMUNITY_CENTER",
            "names": [
              {
                "nameLocale": "en-US",
                "name": "community center"
              }
            ]
          }
        ]
      },
      "address": {
        "streetName": "Tj. Riau",
        "municipalitySubdivision": "Sekupang",
        "municipality": "Batam",
        "municipalitySecondarySubdivision": "Tanjung Riau",
        "countrySubdivision": "Kepulauan Riau",
        "countrySubdivisionName": "Kepulauan Riau",
        "countrySubdivisionCode": "KR",
        "postalCode": "29425",
        "countryCode": "ID",
        "country": "Indonesia",
        "countryCodeISO3": "IDN",
        "freeformAddress": "Tj. Riau, Sekupang Sub District, Batam District, Kepulauan Riau 29425 (Komplek Batin Yahya)",
        "localName": "Batam"
      },
      "position": {
        "lat": 1.0979,
        "lon": 103.931
      },
      "viewport": {
        "topLeftPoint": {
          "lat": 1.0988,
          "lon": 103.9301
        },
        "btmRightPoint": {
          "lat": 1.097,
          "lon": 103.9319
        }
      },
      "entryPoints": [
        {
          "type": "main",
          "position": {
            "lat": 1.09819,
            "lon": 103.93107
          }
        }
      ],
      "dataSources": {
        "geometry": {
          "id": ""
        }
      }
    },
    {
      "type": "POI",
      "id": "ldqy1QPp7fKWc7P0b7sr0A",
      "score": 2.0239999294,
      "info": "search:ta:360006003255990-ID",
      "poi": {
        "name": "Batam",
        "phone": "+62 852-7202-7667",
        "categorySet": [
          {
            "id": 7303003
          }
        ],
        "categories": [
          "flats/apartment complex",
          "residential accommodation"
        ],
        "classifications": [
          {
            "code": "RESIDENTIAL_ACCOMMODATION",
            "names": [
              {
                "nameLocale": "en-US",
                "name": "flats/apartment complex"
              },
              {
                "nameLocale": "en-US",
                "name": "residential accommodation"
              }
            ]
          }
        ]
      },
      "address": {
        "streetName": "Blk. J Jl. Purna Yudha Indah No.5",
        "municipalitySubdivision": "Nongsa",
        "municipality": "Batam",
        "municipalitySecondarySubdivision": "Kabil",
        "countrySubdivision": "Kepulauan Riau",
        "countrySubdivisionName": "Kepulauan Riau",
        "countrySubdivisionCode": "KR",
        "postalCode": "29467",
        "countryCode": "ID",
        "country": "Indonesia",
        "countryCodeISO3": "IDN",
        "freeformAddress": "Blk. J Jl. Purna Yudha Indah No.5, Nongsa Sub District, Batam District, Kepulauan Riau 29467",
        "localName": "Batam"
      },
      "position": {
        "lat": 1.080384,
        "lon": 104.117414
      },
      "viewport": {
        "topLeftPoint": {
          "lat": 1.08128,
          "lon": 104.11651
        },
        "btmRightPoint": {
          "lat": 1.07948,
          "lon": 104.11831
        }
      },
      "entryPoints": [
        {
          "type": "main",
          "position": {
            "lat": 1.0804,
            "lon": 104.1175
          }
        }
      ],
      "dataSources": {
        "geometry": {
          "id": ""
        }
      }
    },
    {
      "type": "POI",
      "id": "qLuTUK2zYbr3lmOKuLLdFA",
      "score": 2.0239999294,
      "info": "search:ta:360006002332176-ID",
      "poi": {
        "name": "Batam",
        "phone": "+62 852-6812-223",
        "categorySet": [
          {
            "id": 7314
          }
        ],
        "categories": [
          "hotel/motel"
        ],
        "classifications": [
          {
            "code": "HOTEL_MOTEL",
            "names": [
              {
                "nameLocale": "en-US",
                "name": "hotel/motel"
              }
            ]
          }
        ]
      },
      "address": {
        "streetName": "Gang Delima",
        "municipalitySubdivision": "Bengkong",
        "municipality": "Batam",
        "municipalitySecondarySubdivision": "Sadai",
        "countrySubdivision": "Kepulauan Riau",
        "countrySubdivisionName": "Kepulauan Riau",
        "countrySubdivisionCode": "KR",
        "postalCode": "29444",
        "countryCode": "ID",
        "country": "Indonesia",
        "countryCodeISO3": "IDN",
        "freeformAddress": "Gang Delima, Bengkong Sub District, Batam District, Kepulauan Riau 29444",
        "localName": "Batam"
      },
      "position": {
        "lat": 1.150289,
        "lon": 104.032724
      },
      "viewport": {
        "topLeftPoint": {
          "lat": 1.15119,
          "lon": 104.03182
        },
        "btmRightPoint": {
          "lat": 1.14939,
          "lon": 104.03362
        }
      },
      "entryPoints": [
        {
          "type": "main",
          "position": {
            "lat": 1.15028,
            "lon": 104.03314
          }
        }
      ],
      "dataSources": {
        "geometry": {
          "id": ""
        }
      }
    },
    {
      "type": "POI",
      "id": "PTxPo6QOero8F5AFFma4PQ",
      "score": 2.0239999294,
      "info": "search:ta:360006005717165-ID",
      "poi": {
        "name": "Batam",
        "phone": "+62 887-1202-188",
        "categorySet": [
          {
            "id": 7304005
          }
        ],
        "categories": [
          "chalet",
          "holiday rental"
        ],
        "classifications": [
          {
            "code": "HOLIDAY_RENTAL",
            "names": [
              {
                "nameLocale": "en-US",
                "name": "holiday rental"
              },
              {
                "nameLocale": "en-US",
                "name": "chalet"
              }
            ]
          }
        ]
      },
      "address": {
        "streetName": "Kecamatan Nongsa",
        "municipalitySubdivision": "Sei Beduk",
        "municipality": "Batam",
        "municipalitySecondarySubdivision": "Muka Kuning",
        "countrySubdivision": "Kepulauan Riau",
        "countrySubdivisionName": "Kepulauan Riau",
        "countrySubdivisionCode": "KR",
        "postalCode": "29433",
        "countryCode": "ID",
        "country": "Indonesia",
        "countryCodeISO3": "IDN",
        "freeformAddress": "Kecamatan Nongsa, Sei Beduk Sub District, Batam District, Kepulauan Riau 29433",
        "localName": "Batam"
      },
      "position": {
        "lat": 1.058251,
        "lon": 104.033151
      },
      "viewport": {
        "topLeftPoint": {
          "lat": 1.05915,
          "lon": 104.03225
        },
        "btmRightPoint": {
          "lat": 1.05735,
          "lon": 104.03405
        }
      },
      "entryPoints": [
        {
          "type": "main",
          "position": {
            "lat": 1.05805,
            "lon": 104.0328
          }
        }
      ],
      "dataSources": {
        "geometry": {
          "id": ""
        }
      }
    },
    {
      "type": "POI",
      "id": "wxzZKAgAUn-mQXTfO8xtmw",
      "score": 2.0239999294,
      "info": "search:ta:360006000119349-ID",
      "poi": {
        "name": "Batam",
        "categorySet": [
          {
            "id": 7360
          }
        ],
        "categories": [
          "camping ground"
        ],
        "classifications": [
          {
            "code": "CAMPING_GROUND",
            "names": [
              {
                "nameLocale": "en-US",
                "name": "camping ground"
              }
            ]
          }
        ]
      },
      "address": {
        "streetName": "Belian",
        "municipalitySubdivision": "Batam Kota",
        "municipality": "Batam",
        "municipalitySecondarySubdivision": "Belian",
        "countrySubdivision": "Kepulauan Riau",
        "countrySubdivisionName": "Kepulauan Riau",
        "countrySubdivisionCode": "KR",
        "postalCode": "29444",
        "countryCode": "ID",
        "country": "Indonesia",
        "countryCodeISO3": "IDN",
        "freeformAddress": "Belian, Batam Kota Sub District, Batam District, Kepulauan Riau 29444",
        "localName": "Batam"
      },
      "position": {
        "lat": 1.1106,
        "lon": 104.0653
      },
      "viewport": {
        "topLeftPoint": {
          "lat": 1.1115,
          "lon": 104.0644
        },
        "btmRightPoint": {
          "lat": 1.1097,
          "lon": 104.0662
        }
      },
      "entryPoints": [
        {
          "type": "main",
          "position": {
            "lat": 1.1106,
            "lon": 104.0652
          }
        }
      ],
      "dataSources": {
        "geometry": {
          "id": ""
        }
      }
    },
    {
      "type": "POI",
      "id": "5ZMErouk58PrJWaZIjaXdQ",
      "score": 2.0239999294,
      "info": "search:ta:360006007296790-ID",
      "poi": {
        "name": "Batam",
        "categorySet": [
          {
            "id": 7303003
          }
        ],
        "categories": [
          "flats/apartment complex",
          "residential accommodation"
        ],
        "classifications": [
          {
            "code": "RESIDENTIAL_ACCOMMODATION",
            "names": [
              {
                "nameLocale": "en-US",
                "name": "flats/apartment complex"
              },
              {
                "nameLocale": "en-US",
                "name": "residential accommodation"
              }
            ]
          }
        ]
      },
      "address": {
        "streetName": "Kutamanggu",
        "municipality": "Majalengka",
        "municipalitySecondarySubdivision": "Kutamanggu",
        "countrySubdivision": "Jawa Barat",
        "countrySubdivisionName": "Jawa Barat",
        "countrySubdivisionCode": "JB",
        "postalCode": "45476",
        "countryCode": "ID",
        "country": "Indonesia",
        "countryCodeISO3": "IDN",
        "freeformAddress": "Kutamanggu, Majalengka District, Jawa Barat 45476",
        "localName": "Majalengka"
      },
      "position": {
        "lat": -6.8181,
        "lon": 108.2519
      },
      "viewport": {
        "topLeftPoint": {
          "lat": -6.8172,
          "lon": 108.25099
        },
        "btmRightPoint": {
          "lat": -6.819,
          "lon": 108.25281
        }
      },
      "entryPoints": [
        {
          "type": "main",
          "position": {
            "lat": -6.81802,
            "lon": 108.25238
          }
        }
      ],
      "dataSources": {
        "geometry": {
          "id": ""
        }
      }
    },
    {
      "type": "POI",
      "id": "btwAKJ8z-qIm48joctHu1w",
      "score": 2.0239999294,
      "info": "search:ta:360006000954500-ID",
      "poi": {
        "name": "Batam",
        "categorySet": [
          {
            "id": 7339003
          }
        ],
        "categories": [
          "mosque",
          "place of worship"
        ],
        "classifications": [
          {
            "code": "PLACE_OF_WORSHIP",
            "names": [
              {
                "nameLocale": "en-US",
                "name": "mosque"
              },
              {
                "nameLocale": "en-US",
                "name": "place of worship"
              }
            ]
          }
        ]
      },
      "address": {
        "streetName": "Barattambak",
        "municipality": "Bangkalan",
        "municipalitySecondarySubdivision": "Pejagan",
        "countrySubdivision": "Jawa Timur",
        "countrySubdivisionName": "Jawa Timur",
        "countrySubdivisionCode": "JI",
        "postalCode": "69112",
        "countryCode": "ID",
        "country": "Indonesia",
        "countryCodeISO3": "IDN",
        "freeformAddress": "Barattambak, Bangkalan District, Jawa Timur 69112",
        "localName": "Bangkalan"
      },
      "position": {
        "lat": -7.0194,
        "lon": 112.7525
      },
      "viewport": {
        "topLeftPoint": {
          "lat": -7.0185,
          "lon": 112.75159
        },
        "btmRightPoint": {
          "lat": -7.0203,
          "lon": 112.75341
        }
      },
      "entryPoints": [
        {
          "type": "main",
          "position": {
            "lat": -7.01958,
            "lon": 112.7527
          }
        }
      ],
      "dataSources": {
        "geometry": {
          "id": ""
        }
      }
    },
    {
      "type": "POI",
      "id": "3rWPZR8-_k4mKt-JWHJCwg",
      "score": 2.0239999294,
      "info": "search:ta:360006007338609-ID",
      "poi": {
        "name": "Batam",
        "categorySet": [
          {
            "id": 7303003
          }
        ],
        "categories": [
          "flats/apartment complex",
          "residential accommodation"
        ],
        "classifications": [
          {
            "code": "RESIDENTIAL_ACCOMMODATION",
            "names": [
              {
                "nameLocale": "en-US",
                "name": "flats/apartment complex"
              },
              {
                "nameLocale": "en-US",
                "name": "residential accommodation"
              }
            ]
          }
        ]
      },
      "address": {
        "streetName": "Kec. Lubuk Baja",
        "municipalitySubdivision": "Lubuk Baja",
        "municipality": "Batam",
        "municipalitySecondarySubdivision": "Baloi Indah",
        "countrySubdivision": "Kepulauan Riau",
        "countrySubdivisionName": "Kepulauan Riau",
        "countrySubdivisionCode": "KR",
        "postalCode": "29444",
        "countryCode": "ID",
        "country": "Indonesia",
        "countryCodeISO3": "IDN",
        "freeformAddress": "Kec. Lubuk Baja, Lubuk Baja Sub District, Batam District, Kepulauan Riau 29444",
        "localName": "Batam"
      },
      "position": {
        "lat": 1.1271,
        "lon": 104.0116
      },
      "viewport": {
        "topLeftPoint": {
          "lat": 1.128,
          "lon": 104.0107
        },
        "btmRightPoint": {
          "lat": 1.1262,
          "lon": 104.0125
        }
      },
      "entryPoints": [
        {
          "type": "main",
          "position": {
            "lat": 1.12712,
            "lon": 104.01173
          }
        }
      ],
      "dataSources": {
        "geometry": {
          "id": ""
        }
      }
    },
    {
      "type": "POI",
      "id": "RS1AhZz-CSq3UHSbHE4Y3Q",
      "score": 2.0239999294,
      "info": "search:ta:360006001686430-ID",
      "poi": {
        "name": "Batam",
        "phone": "+62 627 21702279",
        "categorySet": [
          {
            "id": 7326
          }
        ],
        "categories": [
          "pharmacy"
        ],
        "classifications": [
          {
            "code": "PHARMACY",
            "names": [
              {
                "nameLocale": "en-US",
                "name": "pharmacy"
              }
            ]
          }
        ]
      },
      "address": {
        "streetName": "Jalan Pulau Batam Raya",
        "municipalitySubdivision": "Way Halim",
        "municipality": "Lampung",
        "municipalitySecondarySubdivision": "Way Halim Permai",
        "countrySubdivision": "Lampung",
        "countrySubdivisionName": "Lampung",
        "countrySubdivisionCode": "LA",
        "postalCode": "35135",
        "countryCode": "ID",
        "country": "Indonesia",
        "countryCodeISO3": "IDN",
        "freeformAddress": "Jalan Pulau Batam Raya, Way Halim Sub District, Lampung District, Lampung 35135",
        "localName": "Lampung"
      },
      "position": {
        "lat": -5.384992,
        "lon": 105.276411
      },
      "viewport": {
        "topLeftPoint": {
          "lat": -5.38409,
          "lon": 105.27551
        },
        "btmRightPoint": {
          "lat": -5.38589,
          "lon": 105.27731
        }
      },
      "entryPoints": [
        {
          "type": "main",
          "position": {
            "lat": -5.385,
            "lon": 105.2765
          }
        }
      ],
      "dataSources": {
        "geometry": {
          "id": ""
        }
      }
    },
    {
      "type": "POI",
      "id": "Hbg5KJ-ofLS92bF3WSenMg",
      "score": 2.0239999294,
      "info": "search:ta:360006007123082-ID",
      "poi": {
        "name": "Batam",
        "phone": "+62 627 78395002",
        "categorySet": [
          {
            "id": 7303003
          }
        ],
        "categories": [
          "flats/apartment complex",
          "residential accommodation"
        ],
        "classifications": [
          {
            "code": "RESIDENTIAL_ACCOMMODATION",
            "names": [
              {
                "nameLocale": "en-US",
                "name": "flats/apartment complex"
              },
              {
                "nameLocale": "en-US",
                "name": "residential accommodation"
              }
            ]
          }
        ]
      },
      "address": {
        "streetName": "No 35",
        "municipalitySubdivision": "Sagulung",
        "municipality": "Batam",
        "municipalitySecondarySubdivision": "Sungai Langkai",
        "countrySubdivision": "Kepulauan Riau",
        "countrySubdivisionName": "Kepulauan Riau",
        "countrySubdivisionCode": "KR",
        "postalCode": "29425",
        "countryCode": "ID",
        "country": "Indonesia",
        "countryCodeISO3": "IDN",
        "freeformAddress": "No 35 9, Sagulung Sub District, Batam District, Kepulauan Riau 29425",
        "localName": "Batam"
      },
      "position": {
        "lat": 1.036441,
        "lon": 103.969283
      },
      "viewport": {
        "topLeftPoint": {
          "lat": 1.03734,
          "lon": 103.96838
        },
        "btmRightPoint": {
          "lat": 1.03554,
          "lon": 103.97018
        }
      },
      "entryPoints": [
        {
          "type": "main",
          "position": {
            "lat": 1.03635,
            "lon": 103.96928
          }
        }
      ],
      "dataSources": {
        "geometry": {
          "id": ""
        }
      }
    },
    {
      "type": "POI",
      "id": "5JCXW4UdOgGAXIacD2jZHQ",
      "score": 2.0239999294,
      "info": "search:ta:504009000775704-MA",
      "poi": {
        "name": "Batam",
        "categorySet": [
          {
            "id": 9361013
          }
        ],
        "categories": [
          "electrical, office it: consumer electronics",
          "shop"
        ],
        "classifications": [
          {
            "code": "SHOP",
            "names": [
              {
                "nameLocale": "en-US",
                "name": "shop"
              },
              {
                "nameLocale": "en-US",
                "name": "electrical, office it: consumer electronics"
              }
            ]
          }
        ]
      },
      "address": {
        "streetName": "Rue Daoud Dahiri",
        "municipalitySubdivision": "El Maarif",
        "municipality": "Casablanca",
        "municipalitySecondarySubdivision": "",
        "countrySubdivision": "Casablanca-Settat",
        "countrySubdivisionName": "Casablanca-Settat",
        "countrySubdivisionCode": "6",
        "postalCode": "20330",
        "countryCode": "MA",
        "country": "Royaume du Maroc",
        "countryCodeISO3": "MAR",
        "freeformAddress": "Rue Daoud Dahiri, 20330 Casablanca, Casablanca-Settat",
        "localName": "Casablanca"
      },
      "position": {
        "lat": 33.586258,
        "lon": -7.632703
      },
      "viewport": {
        "topLeftPoint": {
          "lat": 33.58716,
          "lon": -7.63378
        },
        "btmRightPoint": {
          "lat": 33.58536,
          "lon": -7.63162
        }
      },
      "entryPoints": [
        {
          "type": "main",
          "position": {
            "lat": 33.58619,
            "lon": -7.63277
          }
        }
      ],
      "dataSources": {
        "geometry": {
          "id": ""
        }
      }
    },
    {
      "type": "POI",
      "id": "kkaGX0dvz2NbbHNBhmu2nA",
      "score": 2.0239999294,
      "info": "search:ta:484007000804571-MX",
      "poi": {
        "name": "Batam",
        "categorySet": [
          {
            "id": 9352
          }
        ],
        "categories": [
          "company"
        ],
        "classifications": [
          {
            "code": "COMPANY",
            "names": [
              {
                "nameLocale": "en-US",
                "name": "company"
              }
            ]
          }
        ]
      },
      "address": {
        "streetName": "Calle Río Chico",
        "municipalitySubdivision": "La Magdalena Contreras",
        "municipality": "Ciudad de México",
        "municipalitySecondarySubdivision": "San Jerónimo Lídice",
        "countrySubdivision": "Ciudad de México",
        "countrySubdivisionName": "Ciudad de México",
        "countrySubdivisionCode": "CMX",
        "postalCode": "10200",
        "countryCode": "MX",
        "country": "México",
        "countryCodeISO3": "MEX",
        "freeformAddress": "Calle Río Chico 10100, San Jerónimo Lídice, 10200, Ciudad de México, Ciudad de México",
        "localName": "Ciudad de México"
      },
      "position": {
        "lat": 19.332088,
        "lon": -99.214148
      },
      "viewport": {
        "topLeftPoint": {
          "lat": 19.33299,
          "lon": -99.2151
        },
        "btmRightPoint": {
          "lat": 19.33119,
          "lon": -99.21319
        }
      },
      "entryPoints": [
        {
          "type": "main",
          "position": {
            "lat": 19.33211,
            "lon": -99.21406
          }
        }
      ],
      "dataSources": {
        "geometry": {
          "id": ""
        }
      }
    },
    {
      "type": "POI",
      "id": "l6GR6xWUe5gtj2Dw2u6wsw",
      "score": 2.0239999294,
      "info": "search:ta:788009000184430-TN",
      "poi": {
        "name": "Batam",
        "categorySet": [
          {
            "id": 7373
          }
        ],
        "categories": [
          "shopping center"
        ],
        "classifications": [
          {
            "code": "SHOPPING_CENTER",
            "names": [
              {
                "nameLocale": "en-US",
                "name": "shopping center"
              }
            ]
          }
        ]
      },
      "address": {
        "streetName": "Avenue Habib Bourguiba",
        "municipality": "Megrine",
        "municipalitySecondarySubdivision": "",
        "countrySubdivision": "Ben Arous",
        "countrySubdivisionName": "",
        "countrySubdivisionCode": "",
        "postalCode": "2014",
        "countryCode": "TN",
        "country": "Tunisie",
        "countryCodeISO3": "TUN",
        "freeformAddress": "Avenue Habib Bourguiba, Megrine, 2014",
        "localName": "Megrine"
      },
      "position": {
        "lat": 36.771002,
        "lon": 10.228734
      },
      "viewport": {
        "topLeftPoint": {
          "lat": 36.7719,
          "lon": 10.22761
        },
        "btmRightPoint": {
          "lat": 36.7701,
          "lon": 10.22986
        }
      },
      "entryPoints": [
        {
          "type": "main",
          "position": {
            "lat": 36.77119,
            "lon": 10.22882
          }
        }
      ],
      "dataSources": {
        "geometry": {
          "id": ""
        }
      }
    },
    {
      "type": "POI",
      "id": "4YnwUHT2sF_Xe53GSwrxuA",
      "score": 2.0239999294,
      "info": "search:ta:788009000107138-TN",
      "poi": {
        "name": "Batam",
        "categorySet": [
          {
            "id": 7373
          }
        ],
        "categories": [
          "shopping center"
        ],
        "classifications": [
          {
            "code": "SHOPPING_CENTER",
            "names": [
              {
                "nameLocale": "en-US",
                "name": "shopping center"
              }
            ]
          }
        ]
      },
      "address": {
        "streetName": "Avenue de la Libération",
        "municipality": "Hammamet",
        "municipalitySecondarySubdivision": "",
        "countrySubdivision": "Nabeul",
        "countrySubdivisionName": "",
        "countrySubdivisionCode": "",
        "postalCode": "8050",
        "countryCode": "TN",
        "country": "Tunisie",
        "countryCodeISO3": "TUN",
        "freeformAddress": "Avenue de la Libération, Hammamet, 8050",
        "localName": "Hammamet"
      },
      "position": {
        "lat": 36.404907,
        "lon": 10.629871
      },
      "viewport": {
        "topLeftPoint": {
          "lat": 36.40581,
          "lon": 10.62875
        },
        "btmRightPoint": {
          "lat": 36.40401,
          "lon": 10.63099
        }
      },
      "entryPoints": [
        {
          "type": "main",
          "position": {
            "lat": 36.40484,
            "lon": 10.62994
          }
        }
      ],
      "dataSources": {
        "geometry": {
          "id": ""
        }
      }
    },
    {
      "type": "POI",
      "id": "Ww1OzDRYsHp_8PAlHiOWUw",
      "score": 2.0239999294,
      "info": "search:ta:788009000119281-TN",
      "poi": {
        "name": "BATAM",
        "phone": "+216 74 402 323",
        "categorySet": [
          {
            "id": 9352
          }
        ],
        "categories": [
          "company"
        ],
        "classifications": [
          {
            "code": "COMPANY",
            "names": [
              {
                "nameLocale": "en-US",
                "name": "company"
              }
            ]
          }
        ]
      },
      "address": {
        "municipalitySubdivision": "Sfax Ouest",
        "municipality": "Sfax",
        "municipalitySecondarySubdivision": "",
        "countrySubdivision": "Sfax",
        "countrySubdivisionName": "",
        "countrySubdivisionCode": "",
        "postalCode": "3027",
        "countryCode": "TN",
        "country": "Tunisie",
        "countryCodeISO3": "TUN",
        "freeformAddress": "Sfax, 3027",
        "localName": "Sfax"
      },
      "position": {
        "lat": 34.740799,
        "lon": 10.752355
      },
      "viewport": {
        "topLeftPoint": {
          "lat": 34.7417,
          "lon": 10.75126
        },
        "btmRightPoint": {
          "lat": 34.7399,
          "lon": 10.75345
        }
      },
      "entryPoints": [
        {
          "type": "main",
          "position": {
            "lat": 34.74096,
            "lon": 10.75236
          }
        }
      ],
      "dataSources": {
        "geometry": {
          "id": ""
        }
      }
    },
    {
      "type": "POI",
      "id": "TVTWnQo50H5cfQLndNA0JA",
      "score": 2.0239999294,
      "info": "search:ta:788009000190367-TN",
      "poi": {
        "name": "BATAM",
        "categorySet": [
          {
            "id": 9361052
          }
        ],
        "categories": [
          "electrical appliance",
          "shop"
        ],
        "classifications": [
          {
            "code": "SHOP",
            "names": [
              {
                "nameLocale": "en-US",
                "name": "electrical appliance"
              },
              {
                "nameLocale": "en-US",
                "name": "shop"
              }
            ]
          }
        ]
      },
      "address": {
        "streetName": "Avenue Taieb Mhiri",
        "municipalitySubdivision": "Ariana Médina",
        "municipality": "Ariana",
        "municipalitySecondarySubdivision": "",
        "countrySubdivision": "Ariana",
        "countrySubdivisionName": "",
        "countrySubdivisionCode": "",
        "postalCode": "2080",
        "countryCode": "TN",
        "country": "Tunisie",
        "countryCodeISO3": "TUN",
        "freeformAddress": "Avenue Taieb Mhiri, Ariana, 2080",
        "localName": "Ariana"
      },
      "position": {
        "lat": 36.858155,
        "lon": 10.191393
      },
      "viewport": {
        "topLeftPoint": {
          "lat": 36.85905,
          "lon": 10.19027
        },
        "btmRightPoint": {
          "lat": 36.85726,
          "lon": 10.19252
        }
      },
      "entryPoints": [
        {
          "type": "main",
          "position": {
            "lat": 36.85807,
            "lon": 10.19144
          }
        }
      ],
      "dataSources": {
        "geometry": {
          "id": ""
        }
      }
    },
    {
      "type": "POI",
      "id": "8MtsV8LSPJ3FLYU1IlanZw",
      "score": 2.0239999294,
      "info": "search:ta:788009000142032-TN",
      "poi": {
        "name": "Batam",
        "categorySet": [
          {
            "id": 9361023
          }
        ],
        "categories": [
          "food drinks: grocers",
          "shop"
        ],
        "classifications": [
          {
            "code": "SHOP",
            "names": [
              {
                "nameLocale": "en-US",
                "name": "shop"
              },
              {
                "nameLocale": "en-US",
                "name": "food drinks: grocers"
              }
            ]
          }
        ]
      },
      "address": {
        "streetName": "Avenue de Paris",
        "municipalitySubdivision": "Tunis Ville",
        "municipality": "Tunis",
        "municipalitySecondarySubdivision": "Bab El Bhar",
        "countrySubdivision": "Tunis",
        "countrySubdivisionName": "",
        "countrySubdivisionCode": "",
        "postalCode": "",
        "countryCode": "TN",
        "country": "Tunisie",
        "countryCodeISO3": "TUN",
        "freeformAddress": "Avenue de Paris, Tunis",
        "localName": "Tunis"
      },
      "position": {
        "lat": 36.80268,
        "lon": 10.181072
      },
      "viewport": {
        "topLeftPoint": {
          "lat": 36.80358,
          "lon": 10.17995
        },
        "btmRightPoint": {
          "lat": 36.80178,
          "lon": 10.1822
        }
      },
      "entryPoints": [
        {
          "type": "main",
          "position": {
            "lat": 36.80267,
            "lon": 10.18093
          }
        }
      ],
      "dataSources": {
        "geometry": {
          "id": ""
        }
      }
    },
    {
      "type": "POI",
      "id": "sUm4u5nmFddb-cW_zXncEg",
      "score": 2.0239999294,
      "info": "search:ta:788009000186549-TN",
      "poi": {
        "name": "BATAM",
        "categorySet": [
          {
            "id": 9361013
          }
        ],
        "categories": [
          "electrical, office it: consumer electronics",
          "shop"
        ],
        "classifications": [
          {
            "code": "SHOP",
            "names": [
              {
                "nameLocale": "en-US",
                "name": "shop"
              },
              {
                "nameLocale": "en-US",
                "name": "electrical, office it: consumer electronics"
              }
            ]
          }
        ]
      },
      "address": {
        "streetName": "Rue Abou El Atahia",
        "municipalitySubdivision": "Ettadhamen",
        "municipality": "Ettadhamen Mnihla",
        "municipalitySecondarySubdivision": "",
        "countrySubdivision": "Ariana",
        "countrySubdivisionName": "",
        "countrySubdivisionCode": "",
        "postalCode": "2041",
        "countryCode": "TN",
        "country": "Tunisie",
        "countryCodeISO3": "TUN",
        "freeformAddress": "Rue Abou El Atahia, Ettadhamen Mnihla, 2041",
        "localName": "Ettadhamen Mnihla"
      },
      "position": {
        "lat": 36.83647,
        "lon": 10.11341
      },
      "viewport": {
        "topLeftPoint": {
          "lat": 36.83737,
          "lon": 10.11229
        },
        "btmRightPoint": {
          "lat": 36.83557,
          "lon": 10.11453
        }
      },
      "entryPoints": [
        {
          "type": "main",
          "position": {
            "lat": 36.83658,
            "lon": 10.11334
          }
        }
      ],
      "dataSources": {
        "geometry": {
          "id": ""
        }
      }
    },
    {
      "type": "POI",
      "id": "N0tdII55rnl7iC6OY7DCsw",
      "score": 2.0239999294,
      "info": "search:ta:788009000122674-TN",
      "poi": {
        "name": "Batam",
        "phone": "+216 71 660 368",
        "categorySet": [
          {
            "id": 7373
          }
        ],
        "categories": [
          "shopping center"
        ],
        "classifications": [
          {
            "code": "SHOPPING_CENTER",
            "names": [
              {
                "nameLocale": "en-US",
                "name": "shopping center"
              }
            ]
          }
        ]
      },
      "address": {
        "streetName": "Avenue du 20 Mars 1956",
        "municipality": "Tunis",
        "municipalitySecondarySubdivision": "Le Bardo",
        "countrySubdivision": "Tunis",
        "countrySubdivisionName": "",
        "countrySubdivisionCode": "",
        "postalCode": "",
        "countryCode": "TN",
        "country": "Tunisie",
        "countryCodeISO3": "TUN",
        "freeformAddress": "Avenue du 20 Mars 1956, Tunis",
        "localName": "Tunis"
      },
      "position": {
        "lat": 36.807957,
        "lon": 10.138924
      },
      "viewport": {
        "topLeftPoint": {
          "lat": 36.80886,
          "lon": 10.1378
        },
        "btmRightPoint": {
          "lat": 36.80706,
          "lon": 10.14005
        }
      },
      "entryPoints": [
        {
          "type": "main",
          "position": {
            "lat": 36.80781,
            "lon": 10.13896
          }
        }
      ],
      "dataSources": {
        "geometry": {
          "id": ""
        }
      }
    },
    {
      "type": "POI",
      "id": "I2gQltmwmwaAH5ctEZp_SA",
      "score": 2.0239999294,
      "info": "search:ta:788009000116306-TN",
      "poi": {
        "name": "Batam",
        "categorySet": [
          {
            "id": 7373
          }
        ],
        "categories": [
          "shopping center"
        ],
        "classifications": [
          {
            "code": "SHOPPING_CENTER",
            "names": [
              {
                "nameLocale": "en-US",
                "name": "shopping center"
              }
            ]
          }
        ]
      },
      "address": {
        "streetName": "Rue 4366",
        "municipalitySubdivision": "Tunis Ville",
        "municipality": "Tunis",
        "municipalitySecondarySubdivision": "Hraïria",
        "countrySubdivision": "Tunis",
        "countrySubdivisionName": "",
        "countrySubdivisionCode": "",
        "postalCode": "2052",
        "countryCode": "TN",
        "country": "Tunisie",
        "countryCodeISO3": "TUN",
        "freeformAddress": "Rue 4366, Tunis, 2052",
        "localName": "Tunis"
      },
      "position": {
        "lat": 36.793429,
        "lon": 10.107505
      },
      "viewport": {
        "topLeftPoint": {
          "lat": 36.79433,
          "lon": 10.10638
        },
        "btmRightPoint": {
          "lat": 36.79253,
          "lon": 10.10863
        }
      },
      "entryPoints": [
        {
          "type": "main",
          "position": {
            "lat": 36.79346,
            "lon": 10.10795
          }
        }
      ],
      "dataSources": {
        "geometry": {
          "id": ""
        }
      }
    },
    {
      "type": "POI",
      "id": "89CFxVNmotS7_mqWwrIWCQ",
      "score": 2.018185854,
      "info": "search:ta:360006003549960-ID",
      "poi": {
        "name": "Pantai Kamis",
        "phone": "+62 812-7062-474",
        "categorySet": [
          {
            "id": 7376
          }
        ],
        "categories": [
          "important tourist attraction"
        ],
        "classifications": [
          {
            "code": "IMPORTANT_TOURIST_ATTRACTION",
            "names": [
              {
                "nameLocale": "en-US",
                "name": "important tourist attraction"
              }
            ]
          }
        ]
      },
      "address": {
        "streetName": "Kecamatan Nongsa",
        "municipalitySubdivision": "Nongsa",
        "municipality": "Batam",
        "municipalitySecondarySubdivision": "Sambau",
        "countrySubdivision": "Kepulauan Riau",
        "countrySubdivisionName": "Kepulauan Riau",
        "countrySubdivisionCode": "KR",
        "postalCode": "29466",
        "countryCode": "ID",
        "country": "Indonesia",
        "countryCodeISO3": "IDN",
        "freeformAddress": "Kecamatan Nongsa, Nongsa Sub District, Batam District, Kepulauan Riau 29466",
        "localName": "Batam"
      },
      "position": {
        "lat": 1.1476,
        "lon": 104.1117
      },
      "viewport": {
        "topLeftPoint": {
          "lat": 1.1485,
          "lon": 104.1108
        },
        "btmRightPoint": {
          "lat": 1.1467,
          "lon": 104.1126
        }
      },
      "entryPoints": [
        {
          "type": "main",
          "position": {
            "lat": 1.14825,
            "lon": 104.11172
          }
        }
      ],
      "dataSources": {
        "geometry": {
          "id": ""
        }
      }
    },
    {
      "type": "POI",
      "id": "QkQoaykMLnMqTgT8nF7LAQ",
      "score": 2.0041568279,
      "info": "search:ta:826006000612777-GB",
      "poi": {
        "name": "Batams Merch",
        "categorySet": [
          {
            "id": 9361081
          }
        ],
        "categories": [
          "shop",
          "variety store"
        ],
        "classifications": [
          {
            "code": "SHOP",
            "names": [
              {
                "nameLocale": "en-US",
                "name": "shop"
              },
              {
                "nameLocale": "en-US",
                "name": "variety store"
              }
            ]
          }
        ]
      },
      "address": {
        "streetName": "Frecheville Court",
        "municipality": "Bury",
        "municipalitySecondarySubdivision": "",
        "countrySubdivision": "ENG",
        "countrySubdivisionName": "England",
        "countrySubdivisionCode": "ENG",
        "postalCode": "BL9",
        "countryCode": "GB",
        "country": "United Kingdom",
        "countryCodeISO3": "GBR",
        "freeformAddress": "Frecheville Court, Bury, BL9 0UH",
        "localName": "Bury"
      },
      "position": {
        "lat": 53.589075,
        "lon": -2.29967
      },
      "viewport": {
        "topLeftPoint": {
          "lat": 53.58997,
          "lon": -2.30119
        },
        "btmRightPoint": {
          "lat": 53.58818,
          "lon": -2.29815
        }
      },
      "entryPoints": [
        {
          "type": "main",
          "position": {
            "lat": 53.58899,
            "lon": -2.29975
          }
        }
      ],
      "dataSources": {
        "geometry": {
          "id": ""
        }
      }
    },
    {
      "type": "POI",
      "id": "NJjEHIa4UAcgg0EnuojI8A",
      "score": 2.0041568279,
      "info": "search:ta:360006004885282-ID",
      "poi": {
        "name": "In Batam",
        "phone": "+62 778 761111",
        "categorySet": [
          {
            "id": 9361067
          }
        ],
        "categories": [
          "beauty salon",
          "shop"
        ],
        "classifications": [
          {
            "code": "SHOP",
            "names": [
              {
                "nameLocale": "en-US",
                "name": "shop"
              },
              {
                "nameLocale": "en-US",
                "name": "beauty salon"
              }
            ]
          }
        ]
      },
      "address": {
        "streetName": "Nongsa",
        "municipalitySubdivision": "Nongsa",
        "municipality": "Batam",
        "municipalitySecondarySubdivision": "Batu Besar",
        "countrySubdivision": "Kepulauan Riau",
        "countrySubdivisionName": "Kepulauan Riau",
        "countrySubdivisionCode": "KR",
        "postalCode": "29466",
        "countryCode": "ID",
        "country": "Indonesia",
        "countryCodeISO3": "IDN",
        "freeformAddress": "Nongsa, Nongsa Sub District, Batam District, Kepulauan Riau 29466",
        "localName": "Batam"
      },
      "position": {
        "lat": 1.136083,
        "lon": 104.108884
      },
      "viewport": {
        "topLeftPoint": {
          "lat": 1.13698,
          "lon": 104.10798
        },
        "btmRightPoint": {
          "lat": 1.13518,
          "lon": 104.10978
        }
      },
      "entryPoints": [
        {
          "type": "main",
          "position": {
            "lat": 1.1362,
            "lon": 104.1088
          }
        }
      ],
      "dataSources": {
        "geometry": {
          "id": ""
        }
      }
    },
    {
      "type": "POI",
      "id": "_FsfnkwuXgsGbwZWWo0EZw",
      "score": 2.0041568279,
      "info": "search:ta:360006007700385-ID",
      "poi": {
        "name": "Drinknya Batam",
        "phone": "+62 811-7710-951",
        "categorySet": [
          {
            "id": 9361025
          }
        ],
        "categories": [
          "food drinks: wine spirits",
          "shop"
        ],
        "classifications": [
          {
            "code": "SHOP",
            "names": [
              {
                "nameLocale": "en-US",
                "name": "food drinks: wine spirits"
              },
              {
                "nameLocale": "en-US",
                "name": "shop"
              }
            ]
          }
        ]
      },
      "address": {
        "streetName": "Jl. Legenda Malaka No.19",
        "municipalitySubdivision": "Batam Kota",
        "municipality": "Batam",
        "municipalitySecondarySubdivision": "Baloi Permai",
        "countrySubdivision": "Kepulauan Riau",
        "countrySubdivisionName": "Kepulauan Riau",
        "countrySubdivisionCode": "KR",
        "postalCode": "29444",
        "countryCode": "ID",
        "country": "Indonesia",
        "countryCodeISO3": "IDN",
        "freeformAddress": "Jl. Legenda Malaka No.19, Batam Kota Sub District, Batam District, Kepulauan Riau 29444",
        "localName": "Batam"
      },
      "position": {
        "lat": 1.10515,
        "lon": 104.053974
      },
      "viewport": {
        "topLeftPoint": {
          "lat": 1.10605,
          "lon": 104.05307
        },
        "btmRightPoint": {
          "lat": 1.10425,
          "lon": 104.05487
        }
      },
      "entryPoints": [
        {
          "type": "main",
          "position": {
            "lat": 1.10523,
            "lon": 104.05401
          }
        }
      ],
      "dataSources": {
        "geometry": {
          "id": ""
        }
      }
    },
    {
      "type": "POI",
      "id": "fe1OY_e31_cNc7G6pZ2dZg",
      "score": 2.0041568279,
      "info": "search:ta:360006003484082-ID",
      "poi": {
        "name": "Batam Promo",
        "phone": "+62 778 7436000",
        "categorySet": [
          {
            "id": 9352
          }
        ],
        "categories": [
          "company"
        ],
        "classifications": [
          {
            "code": "COMPANY",
            "names": [
              {
                "nameLocale": "en-US",
                "name": "company"
              }
            ]
          }
        ]
      },
      "address": {
        "streetName": "Jalan Permata Regency",
        "municipalitySubdivision": "Lubuk Baja",
        "municipality": "Batam",
        "municipalitySecondarySubdivision": "Baloi Indah",
        "countrySubdivision": "Kepulauan Riau",
        "countrySubdivisionName": "Kepulauan Riau",
        "countrySubdivisionCode": "KR",
        "postalCode": "29432",
        "countryCode": "ID",
        "country": "Indonesia",
        "countryCodeISO3": "IDN",
        "freeformAddress": "Jalan Permata Regency, Lubuk Baja Sub District, Batam District, Kepulauan Riau 29432",
        "localName": "Batam"
      },
      "position": {
        "lat": 1.126409,
        "lon": 104.006271
      },
      "viewport": {
        "topLeftPoint": {
          "lat": 1.12731,
          "lon": 104.00537
        },
        "btmRightPoint": {
          "lat": 1.12551,
          "lon": 104.00717
        }
      },
      "entryPoints": [
        {
          "type": "main",
          "position": {
            "lat": 1.1264,
            "lon": 104.00618
          }
        }
      ],
      "dataSources": {
        "geometry": {
          "id": ""
        }
      }
    },
    {
      "type": "POI",
      "id": "sYui3XTG5p2BwiAWF7bV5A",
      "score": 2.0041568279,
      "info": "search:ta:360006006937447-ID",
      "poi": {
        "name": "Batam News",
        "phone": "+62 811-6835-000",
        "categorySet": [
          {
            "id": 9158
          }
        ],
        "categories": [
          "media facility"
        ],
        "classifications": [
          {
            "code": "MEDIA_FACILITY",
            "names": [
              {
                "nameLocale": "en-US",
                "name": "media facility"
              }
            ]
          }
        ]
      },
      "address": {
        "streetName": "Kompleks Ruko Nusantara Golden",
        "municipalitySubdivision": "Batam Kota",
        "municipality": "Batam",
        "municipalitySecondarySubdivision": "Teluk Tering",
        "countrySubdivision": "Kepulauan Riau",
        "countrySubdivisionName": "Kepulauan Riau",
        "countrySubdivisionCode": "KR",
        "postalCode": "29444",
        "countryCode": "ID",
        "country": "Indonesia",
        "countryCodeISO3": "IDN",
        "freeformAddress": "Kompleks Ruko Nusantara Golden, Batam Kota Sub District, Batam District, Kepulauan Riau 29444",
        "localName": "Batam"
      },
      "position": {
        "lat": 1.127343,
        "lon": 104.051322
      },
      "viewport": {
        "topLeftPoint": {
          "lat": 1.12824,
          "lon": 104.05042
        },
        "btmRightPoint": {
          "lat": 1.12644,
          "lon": 104.05222
        }
      },
      "entryPoints": [
        {
          "type": "main",
          "position": {
            "lat": 1.12726,
            "lon": 104.05129
          }
        }
      ],
      "dataSources": {
        "geometry": {
          "id": ""
        }
      }
    },
    {
      "type": "POI",
      "id": "LZrJo3qr3rEQ9c7Sll4Vlg",
      "score": 2.0041568279,
      "info": "search:ta:360006005147992-ID",
      "poi": {
        "name": "Batam Electrical",
        "phone": "+62 822-8543-787",
        "categorySet": [
          {
            "id": 9361013
          }
        ],
        "categories": [
          "electrical, office it: consumer electronics",
          "shop"
        ],
        "classifications": [
          {
            "code": "SHOP",
            "names": [
              {
                "nameLocale": "en-US",
                "name": "shop"
              },
              {
                "nameLocale": "en-US",
                "name": "electrical, office it: consumer electronics"
              }
            ]
          }
        ]
      },
      "address": {
        "streetName": "Samben",
        "municipality": "Klaten",
        "municipalitySecondarySubdivision": "Gunting",
        "countrySubdivision": "Jawa Tengah",
        "countrySubdivisionName": "Jawa Tengah",
        "countrySubdivisionCode": "JT",
        "postalCode": "57473",
        "countryCode": "ID",
        "country": "Indonesia",
        "countryCodeISO3": "IDN",
        "freeformAddress": "Samben, Klaten District, Jawa Tengah 57473",
        "localName": "Klaten"
      },
      "position": {
        "lat": -7.644649,
        "lon": 110.760179
      },
      "viewport": {
        "topLeftPoint": {
          "lat": -7.64375,
          "lon": 110.75927
        },
        "btmRightPoint": {
          "lat": -7.64555,
          "lon": 110.76109
        }
      },
      "entryPoints": [
        {
          "type": "main",
          "position": {
            "lat": -7.6446,
            "lon": 110.76002
          }
        }
      ],
      "dataSources": {
        "geometry": {
          "id": ""
        }
      }
    },
    {
      "type": "POI",
      "id": "aGJe1EVyVY8fSZxZ4JuRRA",
      "score": 2.0041568279,
      "info": "search:ta:360006001500097-ID",
      "poi": {
        "name": "Gupdi Batam",
        "phone": "+62 812-7019-560",
        "categorySet": [
          {
            "id": 7339002
          }
        ],
        "categories": [
          "church",
          "place of worship"
        ],
        "classifications": [
          {
            "code": "PLACE_OF_WORSHIP",
            "names": [
              {
                "nameLocale": "en-US",
                "name": "place of worship"
              },
              {
                "nameLocale": "en-US",
                "name": "church"
              }
            ]
          }
        ]
      },
      "address": {
        "municipalitySubdivision": "Batam Kota",
        "municipality": "Batam",
        "municipalitySecondarySubdivision": "Teluk Tering",
        "countrySubdivision": "Kepulauan Riau",
        "countrySubdivisionName": "Kepulauan Riau",
        "countrySubdivisionCode": "KR",
        "postalCode": "29444",
        "countryCode": "ID",
        "country": "Indonesia",
        "countryCodeISO3": "IDN",
        "freeformAddress": "Batam Kota Sub District, Batam District, Kepulauan Riau 29444",
        "localName": "Batam"
      },
      "position": {
        "lat": 1.120756,
        "lon": 104.040159
      },
      "viewport": {
        "topLeftPoint": {
          "lat": 1.12166,
          "lon": 104.03926
        },
        "btmRightPoint": {
          "lat": 1.11986,
          "lon": 104.04106
        }
      },
      "entryPoints": [
        {
          "type": "main",
          "position": {
            "lat": 1.12068,
            "lon": 104.04021
          }
        }
      ],
      "dataSources": {
        "geometry": {
          "id": ""
        }
      }
    },
    {
      "type": "POI",
      "id": "UUp2HxP8fQ56lfYIazxQNw",
      "score": 2.0041568279,
      "info": "search:ta:360006007385674-ID",
      "poi": {
        "name": "Jovem Batam",
        "phone": "+62 812-6130-995",
        "categorySet": [
          {
            "id": 9361067
          }
        ],
        "categories": [
          "beauty salon",
          "shop"
        ],
        "classifications": [
          {
            "code": "SHOP",
            "names": [
              {
                "nameLocale": "en-US",
                "name": "shop"
              },
              {
                "nameLocale": "en-US",
                "name": "beauty salon"
              }
            ]
          }
        ]
      },
      "address": {
        "streetName": "Blok A3",
        "municipalitySubdivision": "Sekupang",
        "municipality": "Batam",
        "municipalitySecondarySubdivision": "Sungai Harapan",
        "countrySubdivision": "Kepulauan Riau",
        "countrySubdivisionName": "Kepulauan Riau",
        "countrySubdivisionCode": "KR",
        "postalCode": "29428",
        "countryCode": "ID",
        "country": "Indonesia",
        "countryCodeISO3": "IDN",
        "freeformAddress": "Blok A3 7, Sekupang Sub District, Batam District, Kepulauan Riau 29428",
        "localName": "Batam"
      },
      "position": {
        "lat": 1.112138,
        "lon": 103.958384
      },
      "viewport": {
        "topLeftPoint": {
          "lat": 1.11304,
          "lon": 103.95748
        },
        "btmRightPoint": {
          "lat": 1.11124,
          "lon": 103.95928
        }
      },
      "entryPoints": [
        {
          "type": "main",
          "position": {
            "lat": 1.11206,
            "lon": 103.95842
          }
        }
      ],
      "dataSources": {
        "geometry": {
          "id": ""
        }
      }
    },
    {
      "type": "POI",
      "id": "4KP5iYyI69GCeM5Jt8dlbA",
      "score": 2.0041568279,
      "info": "search:ta:360007000112068-ID",
      "poi": {
        "name": "Artotel Batam",
        "phone": "+62 778 4889888",
        "categorySet": [
          {
            "id": 7314003
          }
        ],
        "categories": [
          "hotel",
          "hotel/motel"
        ],
        "classifications": [
          {
            "code": "HOTEL_MOTEL",
            "names": [
              {
                "nameLocale": "en-US",
                "name": "hotel"
              },
              {
                "nameLocale": "en-US",
                "name": "hotel/motel"
              }
            ]
          }
        ],
        "url": "artotelgroup.com/hotels/artotel/batam"
      },
      "address": {
        "streetName": "Batu Selicin",
        "municipalitySubdivision": "Lubuk Baja",
        "municipality": "Batam",
        "municipalitySecondarySubdivision": "Batu Selicin",
        "countrySubdivision": "Kepulauan Riau",
        "countrySubdivisionName": "Kepulauan Riau",
        "countrySubdivisionCode": "KR",
        "postalCode": "29444",
        "countryCode": "ID",
        "country": "Indonesia",
        "countryCodeISO3": "IDN",
        "freeformAddress": "Batu Selicin, Lubuk Baja Sub District, Batam District, Kepulauan Riau 29444",
        "localName": "Batam"
      },
      "position": {
        "lat": 1.1369,
        "lon": 104.0084
      },
      "viewport": {
        "topLeftPoint": {
          "lat": 1.1378,
          "lon": 104.0075
        },
        "btmRightPoint": {
          "lat": 1.136,
          "lon": 104.0093
        }
      },
      "entryPoints": [
        {
          "type": "main",
          "position": {
            "lat": 1.13701,
            "lon": 104.00845
          }
        }
      ],
      "dataSources": {
        "geometry": {
          "id": ""
        }
      }
    },
    {
      "type": "POI",
      "id": "Fg985ukOqZpreCO10_uq5g",
      "score": 2.0041568279,
      "info": "search:ta:360006003506583-ID",
      "poi": {
        "name": "Batam Copier",
        "categorySet": [
          {
            "id": 9361047
          }
        ],
        "categories": [
          "photocopy",
          "shop"
        ],
        "classifications": [
          {
            "code": "SHOP",
            "names": [
              {
                "nameLocale": "en-US",
                "name": "shop"
              },
              {
                "nameLocale": "en-US",
                "name": "photocopy"
              }
            ]
          }
        ]
      },
      "address": {
        "streetName": "Lytech Industrial Park",
        "municipalitySubdivision": "Batam Kota",
        "municipality": "Batam",
        "municipalitySecondarySubdivision": "Belian",
        "countrySubdivision": "Kepulauan Riau",
        "countrySubdivisionName": "Kepulauan Riau",
        "countrySubdivisionCode": "KR",
        "postalCode": "29444",
        "countryCode": "ID",
        "country": "Indonesia",
        "countryCodeISO3": "IDN",
        "freeformAddress": "Lytech Industrial Park, Batam Kota Sub District, Batam District, Kepulauan Riau 29444",
        "localName": "Batam"
      },
      "position": {
        "lat": 1.107801,
        "lon": 104.066065
      },
      "viewport": {
        "topLeftPoint": {
          "lat": 1.1087,
          "lon": 104.06517
        },
        "btmRightPoint": {
          "lat": 1.1069,
          "lon": 104.06696
        }
      },
      "entryPoints": [
        {
          "type": "main",
          "position": {
            "lat": 1.1078,
            "lon": 104.06615
          }
        }
      ],
      "dataSources": {
        "geometry": {
          "id": ""
        }
      }
    },
    {
      "type": "POI",
      "id": "8bWDWQv3gNi97YX2a4Tskw",
      "score": 2.0041568279,
      "info": "search:ta:360006001706181-ID",
      "poi": {
        "name": "Waroeng Batam",
        "phone": "+62 857-8155-037",
        "categorySet": [
          {
            "id": 7315
          }
        ],
        "categories": [
          "restaurant"
        ],
        "classifications": [
          {
            "code": "RESTAURANT",
            "names": [
              {
                "nameLocale": "en-US",
                "name": "restaurant"
              }
            ]
          }
        ]
      },
      "address": {
        "streetName": "Kec. Kotabaru",
        "municipalitySubdivision": "Kotabaru",
        "municipality": "Karawang Barat",
        "municipalitySecondarySubdivision": "Pucung",
        "countrySubdivision": "Jawa Barat",
        "countrySubdivisionName": "Jawa Barat",
        "countrySubdivisionCode": "JB",
        "postalCode": "41374",
        "countryCode": "ID",
        "country": "Indonesia",
        "countryCodeISO3": "IDN",
        "freeformAddress": "Kec. Kotabaru, Kotabaru Sub District, Karawang Barat District, Jawa Barat 41374",
        "localName": "Karawang Barat"
      },
      "position": {
        "lat": -6.38629,
        "lon": 107.470299
      },
      "viewport": {
        "topLeftPoint": {
          "lat": -6.38539,
          "lon": 107.46939
        },
        "btmRightPoint": {
          "lat": -6.38719,
          "lon": 107.4712
        }
      },
      "entryPoints": [
        {
          "type": "main",
          "position": {
            "lat": -6.3862,
            "lon": 107.47033
          }
        }
      ],
      "dataSources": {
        "geometry": {
          "id": ""
        }
      }
    },
    {
      "type": "POI",
      "id": "LCXqMOUC5Nz2oPB4czYg9g",
      "score": 2.0041568279,
      "info": "search:ta:360006006872662-ID",
      "poi": {
        "name": "Batam Taxiku",
        "phone": "+62 821-7010-093",
        "categorySet": [
          {
            "id": 9352
          }
        ],
        "categories": [
          "company"
        ],
        "classifications": [
          {
            "code": "COMPANY",
            "names": [
              {
                "nameLocale": "en-US",
                "name": "company"
              }
            ]
          }
        ]
      },
      "address": {
        "streetName": "Legenda Batam Centre",
        "municipalitySubdivision": "Bengkong",
        "municipality": "Batam",
        "municipalitySecondarySubdivision": "Tanjung Buntung",
        "countrySubdivision": "Kepulauan Riau",
        "countrySubdivisionName": "Kepulauan Riau",
        "countrySubdivisionCode": "KR",
        "postalCode": "29411",
        "countryCode": "ID",
        "country": "Indonesia",
        "countryCodeISO3": "IDN",
        "freeformAddress": "Legenda Batam Centre, Bengkong Sub District, Batam District, Kepulauan Riau 29411",
        "localName": "Batam"
      },
      "position": {
        "lat": 1.161991,
        "lon": 104.028299
      },
      "viewport": {
        "topLeftPoint": {
          "lat": 1.16289,
          "lon": 104.0274
        },
        "btmRightPoint": {
          "lat": 1.16109,
          "lon": 104.0292
        }
      },
      "entryPoints": [
        {
          "type": "main",
          "position": {
            "lat": 1.16208,
            "lon": 104.02831
          }
        }
      ],
      "dataSources": {
        "geometry": {
          "id": ""
        }
      }
    },
    {
      "type": "POI",
      "id": "T8mURSlaG3zOTBw7uSugCg",
      "score": 2.0041568279,
      "info": "search:ta:360007000023847-ID",
      "poi": {
        "name": "Batam Pos",
        "phone": "+62 627 78460000",
        "categorySet": [
          {
            "id": 9352019
          }
        ],
        "categories": [
          "company",
          "publishing technologies"
        ],
        "classifications": [
          {
            "code": "COMPANY",
            "names": [
              {
                "nameLocale": "en-US",
                "name": "publishing technologies"
              },
              {
                "nameLocale": "en-US",
                "name": "company"
              }
            ]
          }
        ]
      },
      "address": {
        "streetName": "Gedung Graha Pena Jl. Ahmad Yani Lt",
        "municipalitySubdivision": "Batam Kota",
        "municipality": "Batam",
        "municipalitySecondarySubdivision": "Teluk Tering",
        "countrySubdivision": "Kepulauan Riau",
        "countrySubdivisionName": "Kepulauan Riau",
        "countrySubdivisionCode": "KR",
        "postalCode": "29461",
        "countryCode": "ID",
        "country": "Indonesia",
        "countryCodeISO3": "IDN",
        "freeformAddress": "Gedung Graha Pena Jl. Ahmad Yani Lt 2, Batam Kota Sub District, Batam District, Kepulauan Riau 29461",
        "localName": "Batam"
      },
      "position": {
        "lat": 1.125772,
        "lon": 104.051764
      },
      "viewport": {
        "topLeftPoint": {
          "lat": 1.12667,
          "lon": 104.05086
        },
        "btmRightPoint": {
          "lat": 1.12487,
          "lon": 104.05266
        }
      },
      "entryPoints": [
        {
          "type": "main",
          "position": {
            "lat": 1.126,
            "lon": 104.05176
          }
        },
        {
          "type": "main",
          "position": {
            "lat": 1.12569,
            "lon": 104.05223
          }
        }
      ],
      "dataSources": {
        "geometry": {
          "id": ""
        }
      }
    },
    {
      "type": "POI",
      "id": "F5PnyupEhL0KGI2LwGoytQ",
      "score": 2.0041568279,
      "info": "search:ta:360006003542562-ID",
      "poi": {
        "name": "Aspal Batam",
        "phone": "+62 811-6914-795",
        "categorySet": [
          {
            "id": 9352033
          }
        ],
        "categories": [
          "company",
          "moving storage"
        ],
        "classifications": [
          {
            "code": "COMPANY",
            "names": [
              {
                "nameLocale": "en-US",
                "name": "company"
              },
              {
                "nameLocale": "en-US",
                "name": "moving storage"
              }
            ]
          }
        ]
      },