{
  "summary": {
    "query": "indonesia",
    "queryType": "NON_NEAR",
    "queryTime": 395,
    "numResults": 100,
    "offset": 0,
    "totalResults": 100,
    "fuzzyLevel": 1
  },
  "results": [
    {
      "type": "POI",
      "id": "1mIc2az5wgh6CZIvOnAzww",
      "score": 2.4141499996,
      "info": "search:ta:360009000062983-ID",
      "poi": {
        "name": "Gedung MPR DPR Republik Indonesia",
        "phone": "+62 21 57895048",
        "categorySet": [
          {
            "id": 7367
          }
        ],
        "categories": [
          "government office"
        ],
        "classifications": [
          {
            "code": "GOVERNMENT_OFFICE",
            "names": [
              {
                "nameLocale": "en-US",
                "name": "government office"
              }
            ]
          }
        ],
        "url": "www.mpr.go.id"
      },
      "address": {
        "streetName": "Kawasan Gedung MPR DPR RI",
        "municipalitySubdivision": "Tanah Abang",
        "municipality": "Jakarta",
        "municipalitySecondarySubdivision": "Gelora",
        "countrySubdivision": "DKI Jakarta",
        "countrySubdivisionName": "DKI Jakarta",
        "countrySubdivisionCode": "JK",
        "postalCode": "10270",
        "countryCode": "ID",
        "country": "Indonesia",
        "countryCodeISO3": "IDN",
        "freeformAddress": "Kawasan Gedung MPR DPR RI, Tanah Abang Sub District, Jakarta District, DKI Jakarta 10270",
        "localName": "Jakarta"
      },
      "position": {
        "lat": -6.210291,
        "lon": 106.800284
      },
      "viewport": {
        "topLeftPoint": {
          "lat": -6.20939,
          "lon": 106.79938
        },
        "btmRightPoint": {
          "lat": -6.21119,
          "lon": 106.80119
        }
      },
      "entryPoints": [
        {
          "type": "main",
          "position": {
            "lat": -6.20996,
            "lon": 106.80037
          }
        }
      ],
      "dataSources": {
        "geometry": {
          "id": ""
        }
      }
    },
    {
      "type": "POI",
      "id": "nnpSYKqMhfwTZYEyy_T4mA",
      "score": 2.1244060993,
      "info": "search:ta:784008000025484-AE",
      "poi": {
        "name": "Indonesia Pavilion",
        "categorySet": [
          {
            "id": 7376002
          }
        ],
        "categories": [
          "building",
          "important tourist attraction"
        ],
        "classifications": [
          {
            "code": "IMPORTANT_TOURIST_ATTRACTION",
            "names": [
              {
                "nameLocale": "en-US",
                "name": "important tourist attraction"
              },
              {
                "nameLocale": "en-US",
                "name": "building"
              }
            ]
          }
        ]
      },
      "address": {
        "streetName": "Sunset Avenue",
        "municipalitySubdivision": "Madinat Al Maktoum",
        "municipality": "Dubai",
        "municipalitySecondarySubdivision": "Madinat Al Mataar",
        "countrySubdivision": "Dubai",
        "countrySubdivisionName": "Dubai",
        "countrySubdivisionCode": "DU",
        "postalCode": "",
        "countryCode": "AE",
        "country": "United Arab Emirates",
        "countryCodeISO3": "ARE",
        "freeformAddress": "122, Sunset Avenue, Madinat Al Maktoum, Dubai, Dubai",
        "localName": "Dubai"
      },
      "position": {
        "lat": 24.965115,
        "lon": 55.150972
      },
      "viewport": {
        "topLeftPoint": {
          "lat": 24.96601,
          "lon": 55.14998
        },
        "btmRightPoint": {
          "lat": 24.96422,
          "lon": 55.15196
        }
      },
      "entryPoints": [
        {
          "type": "main",
          "position": {
            "lat": 24.9649,
            "lon": 55.15118
          }
        }
      ],
      "dataSources": {
        "geometry": {
          "id": ""
        }
      }
    },
    {
      "type": "POI",
      "id": "S8SS2p4mwrNXnYd5-zlPmQ",
      "score": 2.1244060993,
      "info": "search:ta:360006006048904-ID",
      "poi": {
        "name": "Gravfarm Indonesia",
        "categorySet": [
          {
            "id": 7376
          }
        ],
        "categories": [
          "important tourist attraction"
        ],
        "classifications": [
          {
            "code": "IMPORTANT_TOURIST_ATTRACTION",
            "names": [
              {
                "nameLocale": "en-US",
                "name": "important tourist attraction"
              }
            ]
          }
        ]
      },
      "address": {
        "streetName": "Kp Cikiray Rt01",
        "municipality": "Bandung",
        "municipalitySecondarySubdivision": "Lebakmuncang",
        "countrySubdivision": "Jawa Barat",
        "countrySubdivisionName": "Jawa Barat",
        "countrySubdivisionCode": "JB",
        "postalCode": "40973",
        "countryCode": "ID",
        "country": "Indonesia",
        "countryCodeISO3": "IDN",
        "freeformAddress": "Kp Cikiray Rt01, Bandung District, Jawa Barat 40973",
        "localName": "Bandung"
      },
      "position": {
        "lat": -7.100539,
        "lon": 107.433054
      },
      "viewport": {
        "topLeftPoint": {
          "lat": -7.09964,
          "lon": 107.43215
        },
        "btmRightPoint": {
          "lat": -7.10144,
          "lon": 107.43396
        }
      },
      "entryPoints": [
        {
          "type": "main",
          "position": {
            "lat": -7.10036,
            "lon": 107.43287
          }
        }
      ],
      "dataSources": {
        "geometry": {
          "id": ""
        }
      }
    },
    {
      "type": "POI",
      "id": "HtoPlSRLWuadcZFSivbALQ",
      "score": 2.1244060993,
      "info": "search:ta:360006003461991-ID",
      "poi": {
        "name": "Alltrip Indonesia",
        "phone": "+62 821-4115-6066",
        "categorySet": [
          {
            "id": 7376
          }
        ],
        "categories": [
          "important tourist attraction"
        ],
        "classifications": [
          {
            "code": "IMPORTANT_TOURIST_ATTRACTION",
            "names": [
              {
                "nameLocale": "en-US",
                "name": "important tourist attraction"
              }
            ]
          }
        ],
        "url": "indonesiatripandtour.co.id"
      },
      "address": {
        "municipality": "Batu",
        "municipalitySecondarySubdivision": "Temas",
        "countrySubdivision": "Jawa Timur",
        "countrySubdivisionName": "Jawa Timur",
        "countrySubdivisionCode": "JI",
        "postalCode": "611257",
        "countryCode": "ID",
        "country": "Indonesia",
        "countryCodeISO3": "IDN",
        "freeformAddress": "Batu District, Jawa Timur 611257",
        "localName": "Batu"
      },
      "position": {
        "lat": -7.883065,
        "lon": 112.533449
      },
      "viewport": {
        "topLeftPoint": {
          "lat": -7.88217,
          "lon": 112.53254
        },
        "btmRightPoint": {
          "lat": -7.88396,
          "lon": 112.53436
        }
      },
      "entryPoints": [
        {
          "type": "main",
          "position": {
            "lat": -7.88302,
            "lon": 112.53363
          }
        }
      ],
      "dataSources": {
        "geometry": {
          "id": ""
        }
      }
    },
    {
      "type": "POI",
      "id": "PW0kBYgbionZM5lgodTuxg",
      "score": 2.1244060993,
      "info": "search:ta:360006004946959-ID",
      "poi": {
        "name": "Tnf.indonesia",
        "categorySet": [
          {
            "id": 7376
          }
        ],
        "categories": [
          "important tourist attraction"
        ],
        "classifications": [
          {
            "code": "IMPORTANT_TOURIST_ATTRACTION",
            "names": [
              {
                "nameLocale": "en-US",
                "name": "important tourist attraction"
              }
            ]
          }
        ]
      },
      "address": {
        "streetName": "Gg. Langgar Ii Rt.11/Rw.5",
        "municipality": "Jakarta",
        "municipalitySecondarySubdivision": "Klender",
        "countrySubdivision": "DKI Jakarta",
        "countrySubdivisionName": "DKI Jakarta",
        "countrySubdivisionCode": "JK",
        "postalCode": "13470",
        "countryCode": "ID",
        "country": "Indonesia",
        "countryCodeISO3": "IDN",
        "freeformAddress": "Gg. Langgar Ii Rt.11/Rw.5, Jakarta District, DKI Jakarta 13470",
        "localName": "Jakarta"
      },
      "position": {
        "lat": -6.221413,
        "lon": 106.900584
      },
      "viewport": {
        "topLeftPoint": {
          "lat": -6.22051,
          "lon": 106.89968
        },
        "btmRightPoint": {
          "lat": -6.22231,
          "lon": 106.90149
        }
      },
      "entryPoints": [
        {
          "type": "main",
          "position": {
            "lat": -6.22185,
            "lon": 106.90055
          }
        }
      ],
      "dataSources": {
        "geometry": {
          "id": ""
        }
      }
    },
    {
      "type": "POI",
      "id": "zvW9AmCGO4iuEswORes8xw",
      "score": 2.1244060993,
      "info": "search:ta:360006006974170-ID",
      "poi": {
        "name": "Bromo Indonesia",
        "phone": "+62 813-3432-788",
        "categorySet": [
          {
            "id": 7376
          }
        ],
        "categories": [
          "important tourist attraction"
        ],
        "classifications": [
          {
            "code": "IMPORTANT_TOURIST_ATTRACTION",
            "names": [
              {
                "nameLocale": "en-US",
                "name": "important tourist attraction"
              }
            ]
          }
        ]
      },
      "address": {
        "streetName": "Jl. Bondowoso No.16",
        "municipality": "Malang",
        "municipalitySecondarySubdivision": "Gadingkasri",
        "countrySubdivision": "Jawa Timur",
        "countrySubdivisionName": "Jawa Timur",
        "countrySubdivisionCode": "JI",
        "postalCode": "65115",
        "countryCode": "ID",
        "country": "Indonesia",
        "countryCodeISO3": "IDN",
        "freeformAddress": "Jl. Bondowoso No.16, Malang District, Jawa Timur 65115",
        "localName": "Malang"
      },
      "position": {
        "lat": -7.967642,
        "lon": 112.616133
      },
      "viewport": {
        "topLeftPoint": {
          "lat": -7.96674,
          "lon": 112.61522
        },
        "btmRightPoint": {
          "lat": -7.96854,
          "lon": 112.61704
        }
      },
      "entryPoints": [
        {
          "type": "main",
          "position": {
            "lat": -7.96772,
            "lon": 112.61609
          }
        }
      ],
      "dataSources": {
        "geometry": {
          "id": ""
        }
      }
    },
    {
      "type": "POI",
      "id": "SWsrbTJZp1bGZz5xAhz-KQ",
      "score": 2.1244060993,
      "info": "search:ta:360006003243373-ID",
      "poi": {
        "name": "Rapidplus Indonesia",
        "phone": "+62 821-6652-0731",
        "categorySet": [
          {
            "id": 7376
          }
        ],
        "categories": [
          "important tourist attraction"
        ],
        "classifications": [
          {
            "code": "IMPORTANT_TOURIST_ATTRACTION",
            "names": [
              {
                "nameLocale": "en-US",
                "name": "important tourist attraction"
              }
            ]
          }
        ]
      },
      "address": {
        "streetName": "Jalan Cycas 3",
        "municipalitySubdivision": "Medan Selayang",
        "municipality": "Medan",
        "municipalitySecondarySubdivision": "Asam Kumbang",
        "countrySubdivision": "Sumatera Utara",
        "countrySubdivisionName": "Sumatera Utara",
        "countrySubdivisionCode": "SU",
        "postalCode": "20122",
        "countryCode": "ID",
        "country": "Indonesia",
        "countryCodeISO3": "IDN",
        "freeformAddress": "Jalan Cycas 3, Medan Selayang Sub District, Medan District, Sumatera Utara 20122",
        "localName": "Medan"
      },
      "position": {
        "lat": 3.566169,
        "lon": 98.63311
      },
      "viewport": {
        "topLeftPoint": {
          "lat": 3.56707,
          "lon": 98.63221
        },
        "btmRightPoint": {
          "lat": 3.56527,
          "lon": 98.63401
        }
      },
      "entryPoints": [
        {
          "type": "main",
          "position": {
            "lat": 3.56638,
            "lon": 98.63302
          }
        }
      ],
      "dataSources": {
        "geometry": {
          "id": ""
        }
      }
    },
    {
      "type": "POI",
      "id": "OzrfSz4wGJ12oF61I7WTcw",
      "score": 2.1244060993,
      "info": "search:ta:360006005164324-ID",
      "poi": {
        "name": "Skyworld Indonesia",
        "phone": "+62 857-1592-1983",
        "categorySet": [
          {
            "id": 7376006
          }
        ],
        "categories": [
          "important tourist attraction",
          "planetarium"
        ],
        "classifications": [
          {
            "code": "IMPORTANT_TOURIST_ATTRACTION",
            "names": [
              {
                "nameLocale": "en-US",
                "name": "important tourist attraction"
              },
              {
                "nameLocale": "en-US",
                "name": "planetarium"
              }
            ]
          }
        ],
        "url": "skyworldtmii.com/"
      },
      "address": {
        "streetName": "Jalan Taman Mini Indonesia Indah",
        "municipalitySubdivision": "Jakarta Timur",
        "municipality": "Jakarta",
        "municipalitySecondarySubdivision": "Ceger",
        "countrySubdivision": "DKI Jakarta",
        "countrySubdivisionName": "DKI Jakarta",
        "countrySubdivisionCode": "JK",
        "postalCode": "13810",
        "countryCode": "ID",
        "country": "Indonesia",
        "countryCodeISO3": "IDN",
        "freeformAddress": "Jalan Taman Mini Indonesia Indah, Jakarta Timur Sub District, Jakarta District, DKI Jakarta 13810",
        "localName": "Jakarta"
      },
      "position": {
        "lat": -6.299612,
        "lon": 106.895006
      },
      "viewport": {
        "topLeftPoint": {
          "lat": -6.29871,
          "lon": 106.8941
        },
        "btmRightPoint": {
          "lat": -6.30051,
          "lon": 106.89591
        }
      },
      "entryPoints": [
        {
          "type": "main",
          "position": {
            "lat": -6.29986,
            "lon": 106.89501
          }
        }
      ],
      "dataSources": {
        "geometry": {
          "id": ""
        }
      }
    },
    {
      "type": "POI",
      "id": "4UPB9h8S9U_2sGmCFha0Lw",
      "score": 2.1244060993,
      "info": "search:ta:360006006866585-ID",
      "poi": {
        "name": "Seatrip Indonesia",
        "phone": "+62 821-4343-9999",
        "categorySet": [
          {
            "id": 7376
          }
        ],
        "categories": [
          "important tourist attraction"
        ],
        "classifications": [
          {
            "code": "IMPORTANT_TOURIST_ATTRACTION",
            "names": [
              {
                "nameLocale": "en-US",
                "name": "important tourist attraction"
              }
            ]
          }
        ]
      },
      "address": {
        "streetName": "Jalan Hambalang Golf",
        "municipality": "Kota Bogor",
        "municipalitySecondarySubdivision": "Babakan Madang",
        "countrySubdivision": "Jawa Barat",
        "countrySubdivisionName": "Jawa Barat",
        "countrySubdivisionCode": "JB",
        "postalCode": "16810",
        "countryCode": "ID",
        "country": "Indonesia",
        "countryCodeISO3": "IDN",
        "freeformAddress": "Jalan Hambalang Golf, Kota Bogor District, Jawa Barat 16810",
        "localName": "Kota Bogor"
      },
      "position": {
        "lat": -6.55917,
        "lon": 106.86472
      },
      "viewport": {
        "topLeftPoint": {
          "lat": -6.55827,
          "lon": 106.86381
        },
        "btmRightPoint": {
          "lat": -6.56007,
          "lon": 106.86563
        }
      },
      "entryPoints": [
        {
          "type": "main",
          "position": {
            "lat": -6.55907,
            "lon": 106.86466
          }
        }
      ],
      "dataSources": {
        "geometry": {
          "id": ""
        }
      }
    },
    {
      "type": "POI",
      "id": "Hcij9ft96sr-ZoRaAj3Vdg",
      "score": 2.1244060993,
      "info": "search:ta:360006003936891-ID",
      "poi": {
        "name": "Trekking Indonesia",
        "phone": "+62 817-5794-887",
        "categorySet": [
          {
            "id": 7376
          }
        ],
        "categories": [
          "important tourist attraction"
        ],
        "classifications": [
          {
            "code": "IMPORTANT_TOURIST_ATTRACTION",
            "names": [
              {
                "nameLocale": "en-US",
                "name": "important tourist attraction"
              }
            ]
          }
        ]
      },
      "address": {
        "municipality": "Lombok",
        "municipalitySecondarySubdivision": "Tanjung",
        "countrySubdivision": "Nusa Tenggara Barat",
        "countrySubdivisionName": "Nusa Tenggara Barat",
        "countrySubdivisionCode": "NB",
        "postalCode": "83354",
        "countryCode": "ID",
        "country": "Indonesia",
        "countryCodeISO3": "IDN",
        "freeformAddress": "Lombok District, Nusa Tenggara Barat 83354",
        "localName": "Lombok"
      },
      "position": {
        "lat": -8.35582,
        "lon": 116.155733
      },
      "viewport": {
        "topLeftPoint": {
          "lat": -8.35492,
          "lon": 116.15482
        },
        "btmRightPoint": {
          "lat": -8.35672,
          "lon": 116.15664
        }
      },
      "entryPoints": [
        {
          "type": "main",
          "position": {
            "lat": -8.35593,
            "lon": 116.15568
          }
        }
      ],
      "dataSources": {
        "geometry": {
          "id": ""
        }
      }
    },
    {
      "type": "POI",
      "id": "XJeIUjs6WjO9-fw8kzq8cw",
      "score": 2.1244060993,
      "info": "search:ta:360006007093759-ID",
      "poi": {
        "name": "Asech Indonesia",
        "phone": "+62 811-3898-505",
        "categorySet": [
          {
            "id": 7376
          }
        ],
        "categories": [
          "important tourist attraction"
        ],
        "classifications": [
          {
            "code": "IMPORTANT_TOURIST_ATTRACTION",
            "names": [
              {
                "nameLocale": "en-US",
                "name": "important tourist attraction"
              }
            ]
          }
        ],
        "url": "asech-indonesia.com/id/"
      },
      "address": {
        "streetName": "Jalan Ritz-Carlton",
        "municipalitySubdivision": "Kuta Selatan",
        "municipality": "Badung",
        "municipalitySecondarySubdivision": "Jimbaran",
        "countrySubdivision": "Bali",
        "countrySubdivisionName": "Bali",
        "countrySubdivisionCode": "BA",
        "postalCode": "80361",
        "countryCode": "ID",
        "country": "Indonesia",
        "countryCodeISO3": "IDN",
        "freeformAddress": "Jalan Ritz-Carlton, Kuta Selatan Sub District, Badung District, Bali 80361",
        "localName": "Badung"
      },
      "position": {
        "lat": -8.79312,
        "lon": 115.150132
      },
      "viewport": {
        "topLeftPoint": {
          "lat": -8.79222,
          "lon": 115.14922
        },
        "btmRightPoint": {
          "lat": -8.79402,
          "lon": 115.15104
        }
      },
      "entryPoints": [
        {
          "type": "main",
          "position": {
            "lat": -8.793,
            "lon": 115.15017
          }
        }
      ],
      "dataSources": {
        "geometry": {
          "id": ""
        }
      }
    },
    {
      "type": "POI",
      "id": "8knk_QhugcKcFP6M3_Q0hg",
      "score": 2.1244060993,
      "info": "search:ta:360006003463971-ID",
      "poi": {
        "name": "Gotravela Indonesia",
        "phone": "+62 819-9956-5666",
        "categorySet": [
          {
            "id": 7376
          }
        ],
        "categories": [
          "important tourist attraction"
        ],
        "classifications": [
          {
            "code": "IMPORTANT_TOURIST_ATTRACTION",
            "names": [
              {
                "nameLocale": "en-US",
                "name": "important tourist attraction"
              }
            ]
          }
        ],
        "url": "www.gotravelaindonesia.com"
      },
      "address": {
        "streetName": "Jalan Tukad Pancoran",
        "municipalitySubdivision": "Denpasar Selatan",
        "municipality": "Denpasar",
        "municipalitySecondarySubdivision": "Panjer",
        "countrySubdivision": "Bali",
        "countrySubdivisionName": "Bali",
        "countrySubdivisionCode": "BA",
        "postalCode": "80234",
        "countryCode": "ID",
        "country": "Indonesia",
        "countryCodeISO3": "IDN",
        "freeformAddress": "Jalan Tukad Pancoran, Denpasar Selatan Sub District, Denpasar District, Bali 80234",
        "localName": "Denpasar"
      },
      "position": {
        "lat": -8.690739,
        "lon": 115.230375
      },
      "viewport": {
        "topLeftPoint": {
          "lat": -8.68984,
          "lon": 115.22947
        },
        "btmRightPoint": {
          "lat": -8.69164,
          "lon": 115.23128
        }
      },
      "entryPoints": [
        {
          "type": "main",
          "position": {
            "lat": -8.69065,
            "lon": 115.23039
          }
        }
      ],
      "dataSources": {
        "geometry": {
          "id": ""
        }
      }
    },
    {
      "type": "POI",
      "id": "Pj7oQsXcb3WS-hQS9E8LcQ",
      "score": 2.1037807465,
      "info": "search:ta:360007000014035-ID",
      "poi": {
        "name": "Bundaran Hotel Indonesia",
        "categorySet": [
          {
            "id": 7376003
          }
        ],
        "categories": [
          "important tourist attraction",
          "monument"
        ],
        "classifications": [
          {
            "code": "IMPORTANT_TOURIST_ATTRACTION",
            "names": [
              {
                "nameLocale": "en-US",
                "name": "important tourist attraction"
              },
              {
                "nameLocale": "en-US",
                "name": "monument"
              }
            ]
          }
        ]
      },
      "address": {
        "streetName": "Jalan Bundaran HI",
        "municipality": "Jakarta",
        "municipalitySecondarySubdivision": "Menteng",
        "countrySubdivision": "DKI Jakarta",
        "countrySubdivisionName": "DKI Jakarta",
        "countrySubdivisionCode": "JK",
        "postalCode": "10310",
        "countryCode": "ID",
        "country": "Indonesia",
        "countryCodeISO3": "IDN",
        "freeformAddress": "Jalan Bundaran HI, Jakarta District, DKI Jakarta 10310",
        "localName": "Jakarta"
      },
      "position": {
        "lat": -6.194977,
        "lon": 106.823019
      },
      "viewport": {
        "topLeftPoint": {
          "lat": -6.19408,
          "lon": 106.82211
        },
        "btmRightPoint": {
          "lat": -6.19588,
          "lon": 106.82392
        }
      },
      "entryPoints": [
        {
          "type": "main",
          "position": {
            "lat": -6.19453,
            "lon": 106.82286
          }
        }
      ],
      "dataSources": {
        "geometry": {
          "id": ""
        }
      }
    },
    {
      "type": "POI",
      "id": "CpZzEyYA6BTD1eS__K2HHA",
      "score": 2.1037807465,
      "info": "search:ta:360006007958472-ID",
      "poi": {
        "name": "Museum Layang-Layang Indonesia",
        "phone": "+62 622 17658075",
        "categorySet": [
          {
            "id": 7376
          }
        ],
        "categories": [
          "important tourist attraction"
        ],
        "classifications": [
          {
            "code": "IMPORTANT_TOURIST_ATTRACTION",
            "names": [
              {
                "nameLocale": "en-US",
                "name": "important tourist attraction"
              }
            ]
          }
        ]
      },
      "address": {
        "streetName": "Jl. H. Kamang No.38",
        "municipalitySubdivision": "Cilandak",
        "municipality": "Jakarta",
        "municipalitySecondarySubdivision": "Pondok Labu",
        "countrySubdivision": "DKI Jakarta",
        "countrySubdivisionName": "DKI Jakarta",
        "countrySubdivisionCode": "JK",
        "postalCode": "12450",
        "countryCode": "ID",
        "country": "Indonesia",
        "countryCodeISO3": "IDN",
        "freeformAddress": "Jl. H. Kamang No.38, Cilandak Sub District, Jakarta District, DKI Jakarta 12450",
        "localName": "Jakarta"
      },
      "position": {
        "lat": -6.307962,
        "lon": 106.79055
      },
      "viewport": {
        "topLeftPoint": {
          "lat": -6.30706,
          "lon": 106.78965
        },
        "btmRightPoint": {
          "lat": -6.30886,
          "lon": 106.79145
        }
      },
      "entryPoints": [
        {
          "type": "main",
          "position": {
            "lat": -6.30816,
            "lon": 106.79056
          }
        }
      ],
      "dataSources": {
        "geometry": {
          "id": ""
        }
      }
    },
    {
      "type": "POI",
      "id": "so3IocK8f_OkqdN7VUz1dg",
      "score": 2.1037807465,
      "info": "search:ta:360006006099659-ID",
      "poi": {
        "name": "Kampung Lestari Indonesia",
        "phone": "+62 853-4031-061",
        "categorySet": [
          {
            "id": 7376
          }
        ],
        "categories": [
          "important tourist attraction"
        ],
        "classifications": [
          {
            "code": "IMPORTANT_TOURIST_ATTRACTION",
            "names": [
              {
                "nameLocale": "en-US",
                "name": "important tourist attraction"
              }
            ]
          }
        ]
      },
      "address": {
        "streetName": "Kec. Bajeng Bar",
        "municipalitySubdivision": "Bajeng Barat",
        "municipality": "Gowa",
        "municipalitySecondarySubdivision": "Mandalle",
        "countrySubdivision": "Sulawesi Selatan",
        "countrySubdivisionName": "Sulawesi Selatan",
        "countrySubdivisionCode": "SN",
        "postalCode": "92152",
        "countryCode": "ID",
        "country": "Indonesia",
        "countryCodeISO3": "IDN",
        "freeformAddress": "Kec. Bajeng Bar, Bajeng Barat Sub District, Gowa District, Sulawesi Selatan 92152",
        "localName": "Gowa"
      },
      "position": {
        "lat": -5.2938,
        "lon": 119.3855
      },
      "viewport": {
        "topLeftPoint": {
          "lat": -5.29262,
          "lon": 119.38432
        },
        "btmRightPoint": {
          "lat": -5.29498,
          "lon": 119.38668
        }
      },
      "entryPoints": [
        {
          "type": "main",
          "position": {
            "lat": -5.29263,
            "lon": 119.38537
          }
        }
      ],
      "dataSources": {
        "geometry": {
          "id": ""
        }
      }
    },
    {
      "type": "POI",
      "id": "UgOR2IBhFbpIqPEfX0mjvw",
      "score": 2.1037807465,
      "info": "search:ta:360006006937872-ID",
      "poi": {
        "name": "Miniature House Indonesia",
        "categorySet": [
          {
            "id": 7376
          }
        ],
        "categories": [
          "important tourist attraction"
        ],
        "classifications": [
          {
            "code": "IMPORTANT_TOURIST_ATTRACTION",
            "names": [
              {
                "nameLocale": "en-US",
                "name": "important tourist attraction"
              }
            ]
          }
        ]
      },
      "address": {
        "streetName": "Tj. Buntung",
        "municipalitySubdivision": "Bengkong",
        "municipality": "Batam",
        "municipalitySecondarySubdivision": "Bengkong Laut",
        "countrySubdivision": "Kepulauan Riau",
        "countrySubdivisionName": "Kepulauan Riau",
        "countrySubdivisionCode": "KR",
        "postalCode": "29444",
        "countryCode": "ID",
        "country": "Indonesia",
        "countryCodeISO3": "IDN",
        "freeformAddress": "Tj. Buntung, Bengkong Sub District, Batam District, Kepulauan Riau 29444",
        "localName": "Batam"
      },
      "position": {
        "lat": 1.1621,
        "lon": 104.0411
      },
      "viewport": {
        "topLeftPoint": {
          "lat": 1.163,
          "lon": 104.0402
        },
        "btmRightPoint": {
          "lat": 1.1612,
          "lon": 104.042
        }
      },
      "entryPoints": [
        {
          "type": "main",
          "position": {
            "lat": 1.16207,
            "lon": 104.04087
          }
        }
      ],
      "dataSources": {
        "geometry": {
          "id": ""
        }
      }
    },
    {
      "type": "POI",
      "id": "8X0QmiaGMyAJ9HrUNBtkfg",
      "score": 2.1037807465,
      "info": "search:ta:360006004557755-ID",
      "poi": {
        "name": "Antony Spencer's Indonesia",
        "phone": "+62 822-3249-431",
        "categorySet": [
          {
            "id": 7376
          }
        ],
        "categories": [
          "important tourist attraction"
        ],
        "classifications": [
          {
            "code": "IMPORTANT_TOURIST_ATTRACTION",
            "names": [
              {
                "nameLocale": "en-US",
                "name": "important tourist attraction"
              }
            ]
          }
        ]
      },
      "address": {
        "streetName": "Rw05",
        "municipalitySubdivision": "Yosowilangun",
        "municipality": "Lumajang",
        "municipalitySecondarySubdivision": "Tunjungrejo",
        "countrySubdivision": "Jawa Timur",
        "countrySubdivisionName": "Jawa Timur",
        "countrySubdivisionCode": "JI",
        "postalCode": "67382",
        "countryCode": "ID",
        "country": "Indonesia",
        "countryCodeISO3": "IDN",
        "freeformAddress": "Rw05 03, Yosowilangun Sub District, Lumajang District, Jawa Timur 67382",
        "localName": "Lumajang"
      },
      "position": {
        "lat": -8.2838,
        "lon": 113.3084
      },
      "viewport": {
        "topLeftPoint": {
          "lat": -8.2829,
          "lon": 113.30749
        },
        "btmRightPoint": {
          "lat": -8.2847,
          "lon": 113.30931
        }
      },
      "entryPoints": [
        {
          "type": "main",
          "position": {
            "lat": -8.28378,
            "lon": 113.30822
          }
        }
      ],
      "dataSources": {
        "geometry": {
          "id": ""
        }
      }
    },
    {
      "type": "POI",
      "id": "VeZ8rG1rKgKFsE56I95PPw",
      "score": 2.1037807465,
      "info": "search:ta:360006005478009-ID",
      "poi": {
        "name": "Scubaspa Zen Indonesia",
        "phone": "+62 878-4384-2262",
        "categorySet": [
          {
            "id": 7376
          }
        ],
        "categories": [
          "important tourist attraction"
        ],
        "classifications": [
          {
            "code": "IMPORTANT_TOURIST_ATTRACTION",
            "names": [
              {
                "nameLocale": "en-US",
                "name": "important tourist attraction"
              }
            ]
          }
        ],
        "url": "www.scubaspa-indonesia.com/"
      },
      "address": {
        "streetName": "Jalan Ngurah Rai By Pass",
        "municipalitySubdivision": "Denpasar Selatan",
        "municipality": "Denpasar",
        "municipalitySecondarySubdivision": "Sesetan",
        "countrySubdivision": "Bali",
        "countrySubdivisionName": "Bali",
        "countrySubdivisionCode": "BA",
        "postalCode": "80222",
        "countryCode": "ID",
        "country": "Indonesia",
        "countryCodeISO3": "IDN",
        "freeformAddress": "Jalan Ngurah Rai By Pass, Denpasar Selatan Sub District, Denpasar District, Bali 80222 (Sesetan)",
        "localName": "Denpasar"
      },
      "position": {
        "lat": -8.71587,
        "lon": 115.220334
      },
      "viewport": {
        "topLeftPoint": {
          "lat": -8.71497,
          "lon": 115.21942
        },
        "btmRightPoint": {
          "lat": -8.71677,
          "lon": 115.22124
        }
      },
      "entryPoints": [
        {
          "type": "main",
          "position": {
            "lat": -8.71577,
            "lon": 115.22027
          }
        }
      ],
      "dataSources": {
        "geometry": {
          "id": ""
        }
      }
    },
    {
      "type": "POI",
      "id": "h93UTgaFJye4JAz4K7f83g",
      "score": 2.1037807465,
      "info": "search:ta:360006007371216-ID",
      "poi": {
        "name": "Guerilla Dive Indonesia",
        "phone": "+62 21 7504381",
        "categorySet": [
          {
            "id": 7376
          }
        ],
        "categories": [
          "important tourist attraction"
        ],
        "classifications": [
          {
            "code": "IMPORTANT_TOURIST_ATTRACTION",
            "names": [
              {
                "nameLocale": "en-US",
                "name": "important tourist attraction"
              }
            ]
          }
        ],
        "url": "www.guerillaindonesia.com"
      },
      "address": {
        "streetName": "Jalan Pangeran",
        "municipality": "Jakarta",
        "municipalitySecondarySubdivision": "Bale Kambang",
        "countrySubdivision": "DKI Jakarta",
        "countrySubdivisionName": "DKI Jakarta",
        "countrySubdivisionCode": "JK",
        "postalCode": "12430",
        "countryCode": "ID",
        "country": "Indonesia",
        "countryCodeISO3": "IDN",
        "freeformAddress": "Jalan Pangeran, Jakarta District, DKI Jakarta 12430",
        "localName": "Jakarta"
      },
      "position": {
        "lat": -6.281763,
        "lon": 106.85485
      },
      "viewport": {
        "topLeftPoint": {
          "lat": -6.28086,
          "lon": 106.85395
        },
        "btmRightPoint": {
          "lat": -6.28266,
          "lon": 106.85575
        }
      },
      "entryPoints": [
        {
          "type": "main",
          "position": {
            "lat": -6.28167,
            "lon": 106.85486
          }
        }
      ],
      "dataSources": {
        "geometry": {
          "id": ""
        }
      }
    },
    {
      "type": "POI",
      "id": "6_K42YM79MAvhC1rgDbrog",
      "score": 2.1037807465,
      "info": "search:ta:360006004246600-ID",
      "poi": {
        "name": "Permata Agro Indonesia",
        "categorySet": [
          {
            "id": 7376
          }
        ],
        "categories": [
          "important tourist attraction"
        ],
        "classifications": [
          {
            "code": "IMPORTANT_TOURIST_ATTRACTION",
            "names": [
              {
                "nameLocale": "en-US",
                "name": "important tourist attraction"
              }
            ]
          }
        ]
      },
      "address": {
        "streetName": "Kec. Kedopok",
        "municipality": "Probolinggo",
        "municipalitySecondarySubdivision": "Jrebeng Kulon",
        "countrySubdivision": "Jawa Timur",
        "countrySubdivisionName": "Jawa Timur",
        "countrySubdivisionCode": "JI",
        "postalCode": "67229",
        "countryCode": "ID",
        "country": "Indonesia",
        "countryCodeISO3": "IDN",
        "freeformAddress": "Kec. Kedopok, Probolinggo District, Jawa Timur 67229",
        "localName": "Probolinggo"
      },
      "position": {
        "lat": -7.7759,
        "lon": 113.2072
      },
      "viewport": {
        "topLeftPoint": {
          "lat": -7.775,
          "lon": 113.20629
        },
        "btmRightPoint": {
          "lat": -7.7768,
          "lon": 113.20811
        }
      },
      "entryPoints": [
        {
          "type": "main",
          "position": {
            "lat": -7.77574,
            "lon": 113.20723
          }
        }
      ],
      "dataSources": {
        "geometry": {
          "id": ""
        }
      }
    },
    {
      "type": "POI",
      "id": "kpNd_8ouF2l9HmlS6EwX-g",
      "score": 2.1037807465,
      "info": "search:ta:360006003903841-ID",
      "poi": {
        "name": "Alpha Dharma Indonesia",
        "categorySet": [
          {
            "id": 7376
          }
        ],
        "categories": [
          "important tourist attraction"
        ],
        "classifications": [
          {
            "code": "IMPORTANT_TOURIST_ATTRACTION",
            "names": [
              {
                "nameLocale": "en-US",
                "name": "important tourist attraction"
              }
            ]
          }
        ]
      },
      "address": {
        "streetName": "Jl. Sersan Marjuki No.60",
        "municipalitySubdivision": "Bekasi Selatan",
        "municipality": "Kota Bekasi",
        "municipalitySecondarySubdivision": "Pekayon Jaya",
        "countrySubdivision": "Jawa Barat",
        "countrySubdivisionName": "Jawa Barat",
        "countrySubdivisionCode": "JB",
        "postalCode": "17148",
        "countryCode": "ID",
        "country": "Indonesia",
        "countryCodeISO3": "IDN",
        "freeformAddress": "Jl. Sersan Marjuki No.60, Bekasi Selatan Sub District, Kota Bekasi District, Jawa Barat 17148",
        "localName": "Kota Bekasi"
      },
      "position": {
        "lat": -6.252439,
        "lon": 106.98159
      },
      "viewport": {
        "topLeftPoint": {
          "lat": -6.25154,
          "lon": 106.98069
        },
        "btmRightPoint": {
          "lat": -6.25334,
          "lon": 106.98249
        }
      },
      "entryPoints": [
        {
          "type": "main",
          "position": {
            "lat": -6.25177,
            "lon": 106.98207
          }
        }
      ],
      "dataSources": {
        "geometry": {
          "id": ""
        }
      }
    },
    {
      "type": "POI",
      "id": "zmps3H3PNMerhg10z9isiw",
      "score": 2.1037807465,
      "info": "search:ta:360006003062148-ID",
      "poi": {
        "name": "Kek.pariwisata Indonesia",
        "categorySet": [
          {
            "id": 7376
          }
        ],
        "categories": [
          "important tourist attraction"
        ],
        "classifications": [
          {
            "code": "IMPORTANT_TOURIST_ATTRACTION",
            "names": [
              {
                "nameLocale": "en-US",
                "name": "important tourist attraction"
              }
            ]
          }
        ]
      },
      "address": {
        "streetName": "Kec. Abepura",
        "municipalitySubdivision": "Abepura",
        "municipality": "Jayapura",
        "municipalitySecondarySubdivision": "Wahno",
        "countrySubdivision": "Papua",
        "countrySubdivisionName": "Papua",
        "countrySubdivisionCode": "PP",
        "postalCode": "99224",
        "countryCode": "ID",
        "country": "Indonesia",
        "countryCodeISO3": "IDN",
        "freeformAddress": "Kec. Abepura, Abepura Sub District, Jayapura District, Papua 99224",
        "localName": "Jayapura"
      },
      "position": {
        "lat": -2.597845,
        "lon": 140.684885
      },
      "viewport": {
        "topLeftPoint": {
          "lat": -2.59695,
          "lon": 140.68398
        },
        "btmRightPoint": {
          "lat": -2.59874,
          "lon": 140.68579
        }
      },
      "entryPoints": [
        {
          "type": "main",
          "position": {
            "lat": -2.59815,
            "lon": 140.68513
          }
        }
      ],
      "dataSources": {
        "geometry": {
          "id": ""
        }
      }
    },
    {
      "type": "POI",
      "id": "wEZFhSgdTNBXGr_664zPtw",
      "score": 2.1037807465,
      "info": "search:ta:360006005051384-ID",
      "poi": {
        "name": "Tugu Bikers Indonesia",
        "phone": "+62 813-5399-9311",
        "categorySet": [
          {
            "id": 7376
          }
        ],
        "categories": [
          "important tourist attraction"
        ],
        "classifications": [
          {
            "code": "IMPORTANT_TOURIST_ATTRACTION",
            "names": [
              {
                "nameLocale": "en-US",
                "name": "important tourist attraction"
              }
            ]
          }
        ]
      },
      "address": {
        "streetName": "Jl. Moni - Kelimutu",
        "municipality": "Ende",
        "municipalitySecondarySubdivision": "Waturaka",
        "countrySubdivision": "Nusa Tenggara Timur",
        "countrySubdivisionName": "Nusa Tenggara Timur",
        "countrySubdivisionCode": "NT",
        "postalCode": "86318",
        "countryCode": "ID",
        "country": "Indonesia",
        "countryCodeISO3": "IDN",
        "freeformAddress": "Jl. Moni - Kelimutu, Ende District, Nusa Tenggara Timur 86318",
        "localName": "Ende"
      },
      "position": {
        "lat": -8.7474,
        "lon": 121.8416
      },
      "viewport": {
        "topLeftPoint": {
          "lat": -8.7465,
          "lon": 121.84069
        },
        "btmRightPoint": {
          "lat": -8.7483,
          "lon": 121.84251
        }
      },
      "entryPoints": [
        {
          "type": "main",
          "position": {
            "lat": -8.74739,
            "lon": 121.84162
          }
        }
      ],
      "dataSources": {
        "geometry": {
          "id": ""
        }
      }
    },
    {
      "type": "POI",
      "id": "3nSWDAvPmRI_jQFLaSWJVQ",
      "score": 2.1037807465,
      "info": "search:ta:360007000071336-ID",
      "poi": {
        "name": "Gedung Nasional Indonesia",
        "categorySet": [
          {
            "id": 7376
          }
        ],
        "categories": [
          "important tourist attraction"
        ],
        "classifications": [
          {
            "code": "IMPORTANT_TOURIST_ATTRACTION",
            "names": [
              {
                "nameLocale": "en-US",
                "name": "important tourist attraction"
              }
            ]
          }
        ]
      },
      "address": {
        "streetName": "Jalan Gedung Nasional Indonesia",
        "municipality": "Surabaya",
        "municipalitySecondarySubdivision": "Bubutan",
        "countrySubdivision": "Jawa Timur",
        "countrySubdivisionName": "Jawa Timur",
        "countrySubdivisionCode": "JI",
        "postalCode": "60174",
        "countryCode": "ID",
        "country": "Indonesia",
        "countryCodeISO3": "IDN",
        "freeformAddress": "Jalan Gedung Nasional Indonesia, Surabaya District, Jawa Timur 60174",
        "localName": "Surabaya"
      },
      "position": {
        "lat": -7.250501,
        "lon": 112.735083
      },
      "viewport": {
        "topLeftPoint": {
          "lat": -7.2496,
          "lon": 112.73418
        },
        "btmRightPoint": {
          "lat": -7.2514,
          "lon": 112.73599
        }
      },
      "entryPoints": [
        {
          "type": "main",
          "position": {
            "lat": -7.25042,
            "lon": 112.73511
          }
        }
      ],
      "dataSources": {
        "geometry": {
          "id": ""
        }
      }
    },
    {
      "type": "POI",
      "id": "RZIj2zmAmPCD2cANuHGzow",
      "score": 2.1037807465,
      "info": "search:ta:360006005542145-ID",
      "poi": {
        "name": "Trip View Indonesia",
        "phone": "+62 851-5658-1951",
        "categorySet": [
          {
            "id": 7376
          }
        ],
        "categories": [
          "important tourist attraction"
        ],
        "classifications": [
          {
            "code": "IMPORTANT_TOURIST_ATTRACTION",
            "names": [
              {
                "nameLocale": "en-US",
                "name": "important tourist attraction"
              }
            ]
          }
        ]
      },
      "address": {
        "streetName": "Jalan Pondok Benowo Indah",
        "municipality": "Surabaya",
        "municipalitySecondarySubdivision": "Babat Jerawat",
        "countrySubdivision": "Jawa Timur",
        "countrySubdivisionName": "Jawa Timur",
        "countrySubdivisionCode": "JI",
        "postalCode": "60196",
        "countryCode": "ID",
        "country": "Indonesia",
        "countryCodeISO3": "IDN",
        "freeformAddress": "Jalan Pondok Benowo Indah, Surabaya District, Jawa Timur 60196",
        "localName": "Surabaya"
      },
      "position": {
        "lat": -7.239615,
        "lon": 112.626894
      },
      "viewport": {
        "topLeftPoint": {
          "lat": -7.23872,
          "lon": 112.62599
        },
        "btmRightPoint": {
          "lat": -7.24051,
          "lon": 112.6278
        }
      },
      "entryPoints": [
        {
          "type": "main",
          "position": {
            "lat": -7.23958,
            "lon": 112.62681
          }
        }
      ],
      "dataSources": {
        "geometry": {
          "id": ""
        }
      }
    },
    {
      "type": "POI",
      "id": "cyxwZsOu72MLHTvUndFIVA",
      "score": 2.1037807465,
      "info": "search:ta:360006003349993-ID",
      "poi": {
        "name": "Galeri Flora Indonesia",
        "phone": "+62 811-1111-838",
        "categorySet": [
          {
            "id": 7376
          }
        ],
        "categories": [
          "important tourist attraction"
        ],
        "classifications": [
          {
            "code": "IMPORTANT_TOURIST_ATTRACTION",
            "names": [
              {
                "nameLocale": "en-US",
                "name": "important tourist attraction"
              }
            ]
          }
        ]
      },
      "address": {
        "streetName": "Kertawangi",
        "municipalitySubdivision": "Cisarua",
        "municipality": "Bandung",
        "municipalitySecondarySubdivision": "Kertawangi",
        "countrySubdivision": "Jawa Barat",
        "countrySubdivisionName": "Jawa Barat",
        "countrySubdivisionCode": "JB",
        "postalCode": "40551",
        "countryCode": "ID",
        "country": "Indonesia",
        "countryCodeISO3": "IDN",
        "freeformAddress": "Kertawangi, Cisarua Sub District, Bandung District, Jawa Barat 40551",
        "localName": "Bandung"
      },
      "position": {
        "lat": -6.7881,
        "lon": 107.5806
      },
      "viewport": {
        "topLeftPoint": {
          "lat": -6.7872,
          "lon": 107.57969
        },
        "btmRightPoint": {
          "lat": -6.789,
          "lon": 107.58151
        }
      },
      "entryPoints": [
        {
          "type": "main",
          "position": {
            "lat": -6.78806,
            "lon": 107.58049
          }
        }
      ],
      "dataSources": {
        "geometry": {
          "id": ""
        }
      }
    },
    {
      "type": "POI",
      "id": "u6YuWYFVnImVsz_IdGvnaw",
      "score": 2.1037807465,
      "info": "search:ta:360006006863807-ID",
      "poi": {
        "name": "Mentari Outbound Indonesia",
        "phone": "+62 818-8288-3292",
        "categorySet": [
          {
            "id": 7376
          }
        ],
        "categories": [
          "important tourist attraction"
        ],
        "classifications": [
          {
            "code": "IMPORTANT_TOURIST_ATTRACTION",
            "names": [
              {
                "nameLocale": "en-US",
                "name": "important tourist attraction"
              }
            ]
          }
        ]
      },
      "address": {
        "streetName": "Jl Talun Km",
        "municipality": "Magelang",
        "municipalitySecondarySubdivision": "Banyubiru",
        "countrySubdivision": "Jawa Tengah",
        "countrySubdivisionName": "Jawa Tengah",
        "countrySubdivisionCode": "JT",
        "postalCode": "56482",
        "countryCode": "ID",
        "country": "Indonesia",
        "countryCodeISO3": "IDN",
        "freeformAddress": "Jl Talun Km 3, Magelang District, Jawa Tengah 56482",
        "localName": "Magelang"
      },
      "position": {
        "lat": -7.561639,
        "lon": 110.308432
      },
      "viewport": {
        "topLeftPoint": {
          "lat": -7.56074,
          "lon": 110.30752
        },
        "btmRightPoint": {
          "lat": -7.56254,
          "lon": 110.30934
        }
      },
      "entryPoints": [
        {
          "type": "main",
          "position": {
            "lat": -7.56157,
            "lon": 110.30836
          }
        }
      ],
      "dataSources": {
        "geometry": {
          "id": ""
        }
      }
    },
    {
      "type": "POI",
      "id": "fpp9Ma7ap9CIZMIpSsaOsg",
      "score": 2.1037807465,
      "info": "search:ta:360006003439059-ID",
      "poi": {
        "name": "Rumah Atsiri Indonesia",
        "phone": "+62 812-1112-226",
        "categorySet": [
          {
            "id": 7376
          }
        ],
        "categories": [
          "important tourist attraction"
        ],
        "classifications": [
          {
            "code": "IMPORTANT_TOURIST_ATTRACTION",
            "names": [
              {
                "nameLocale": "en-US",
                "name": "important tourist attraction"
              }
            ]
          }
        ]
      },
      "address": {
        "streetName": "Watusambang",
        "municipality": "Karanganyar",
        "municipalitySecondarySubdivision": "Plumbon",
        "countrySubdivision": "Jawa Tengah",
        "countrySubdivisionName": "Jawa Tengah",
        "countrySubdivisionCode": "JT",
        "postalCode": "57792",
        "countryCode": "ID",
        "country": "Indonesia",
        "countryCodeISO3": "IDN",
        "freeformAddress": "Watusambang, Karanganyar District, Jawa Tengah 57792",
        "localName": "Karanganyar"
      },
      "position": {
        "lat": -7.655035,
        "lon": 111.10187
      },
      "viewport": {
        "topLeftPoint": {
          "lat": -7.65414,
          "lon": 111.10096
        },
        "btmRightPoint": {
          "lat": -7.65593,
          "lon": 111.10278
        }
      },
      "entryPoints": [
        {
          "type": "main",
          "position": {
            "lat": -7.65513,
            "lon": 111.10187
          }
        }
      ],
      "dataSources": {
        "geometry": {
          "id": ""
        }
      }
    },
    {
      "type": "POI",
      "id": "zZBD_2OVZmSa6sjWe8J-gA",
      "score": 2.1037807465,
      "info": "search:ta:360006003442849-ID",
      "poi": {
        "name": "Tugu Bank Indonesia",
        "phone": "+62 565 219046",
        "categorySet": [
          {
            "id": 7376
          }
        ],
        "categories": [
          "important tourist attraction"
        ],
        "classifications": [
          {
            "code": "IMPORTANT_TOURIST_ATTRACTION",
            "names": [
              {
                "nameLocale": "en-US",
                "name": "important tourist attraction"
              }
            ]
          }
        ]
      },
      "address": {
        "streetName": "Jl. Pkp Mujahidin",
        "municipality": "Sintang",
        "municipalitySecondarySubdivision": "Alai",
        "countrySubdivision": "Kalimantan Barat",
        "countrySubdivisionName": "Kalimantan Barat",
        "countrySubdivisionCode": "KB",
        "postalCode": "78613",
        "countryCode": "ID",
        "country": "Indonesia",
        "countryCodeISO3": "IDN",
        "freeformAddress": "Jl. Pkp Mujahidin, Sintang District, Kalimantan Barat 78613",
        "localName": "Sintang"
      },
      "position": {
        "lat": 0.069643,
        "lon": 111.496652
      },
      "viewport": {
        "topLeftPoint": {
          "lat": 0.07054,
          "lon": 111.49575
        },
        "btmRightPoint": {
          "lat": 0.06874,
          "lon": 111.49755
        }
      },
      "entryPoints": [
        {
          "type": "main",
          "position": {
            "lat": 0.0698,
            "lon": 111.49653
          }
        }
      ],
      "dataSources": {
        "geometry": {
          "id": ""
        }
      }
    },
    {
      "type": "POI",
      "id": "pKzrU7hFd4Eq0gL-q8kQ0Q",
      "score": 2.1037807465,
      "info": "search:ta:360006007661125-ID",
      "poi": {
        "name": "Taman Sawah Indonesia",
        "categorySet": [
          {
            "id": 7376
          }
        ],
        "categories": [
          "important tourist attraction"
        ],
        "classifications": [
          {
            "code": "IMPORTANT_TOURIST_ATTRACTION",
            "names": [
              {
                "nameLocale": "en-US",
                "name": "important tourist attraction"
              }
            ]
          }
        ]
      },
      "address": {
        "streetName": "Kec. Demak",
        "municipality": "Demak",
        "municipalitySecondarySubdivision": "Bango",
        "countrySubdivision": "Jawa Tengah",
        "countrySubdivisionName": "Jawa Tengah",
        "countrySubdivisionCode": "JT",
        "postalCode": "59517",
        "countryCode": "ID",
        "country": "Indonesia",
        "countryCodeISO3": "IDN",
        "freeformAddress": "Kec. Demak, Demak District, Jawa Tengah 59517",
        "localName": "Demak"
      },
      "position": {
        "lat": -6.866838,
        "lon": 110.67629
      },
      "viewport": {
        "topLeftPoint": {
          "lat": -6.8653,
          "lon": 110.67474
        },
        "btmRightPoint": {
          "lat": -6.86838,
          "lon": 110.67784
        }
      },
      "entryPoints": [
        {
          "type": "main",
          "position": {
            "lat": -6.86744,
            "lon": 110.67486
          }
        }
      ],
      "dataSources": {
        "geometry": {
          "id": ""
        }
      }
    },
    {
      "type": "POI",
      "id": "TG_uStoRRuvZMYNVCmKcJw",
      "score": 2.1037807465,
      "info": "search:ta:360006007115345-ID",
      "poi": {
        "name": "Ubud Bali Indonesia",
        "phone": "+62 812-3973-6636",
        "categorySet": [
          {
            "id": 7376
          }
        ],
        "categories": [
          "important tourist attraction"
        ],
        "classifications": [
          {
            "code": "IMPORTANT_TOURIST_ATTRACTION",
            "names": [
              {
                "nameLocale": "en-US",
                "name": "important tourist attraction"
              }
            ]
          }
        ],
        "url": "www.balisunrisetrekkingguide.com/wp-admin"
      },
      "address": {
        "streetName": "Jalan Wenara Wana",
        "municipality": "Gianyar",
        "municipalitySecondarySubdivision": "Ubud",
        "countrySubdivision": "Bali",
        "countrySubdivisionName": "Bali",
        "countrySubdivisionCode": "BA",
        "postalCode": "80237",
        "countryCode": "ID",
        "country": "Indonesia",
        "countryCodeISO3": "IDN",
        "freeformAddress": "Jalan Wenara Wana, Gianyar District, Bali 80237",
        "localName": "Gianyar"
      },
      "position": {
        "lat": -8.507147,
        "lon": 115.26227
      },
      "viewport": {
        "topLeftPoint": {
          "lat": -8.50625,
          "lon": 115.26136
        },
        "btmRightPoint": {
          "lat": -8.50805,
          "lon": 115.26318
        }
      },
      "entryPoints": [
        {
          "type": "main",
          "position": {
            "lat": -8.50719,
            "lon": 115.26235
          }
        }
      ],
      "dataSources": {
        "geometry": {
          "id": ""
        }
      }
    },
    {
      "type": "POI",
      "id": "M9wLmF-pnsLX7CIhcR4eJg",
      "score": 2.1037807465,
      "info": "search:ta:360006006948903-ID",
      "poi": {
        "name": "Akademi Trader Indonesia",
        "phone": "+62 852-3777-7474",
        "categorySet": [
          {
            "id": 7376
          }
        ],
        "categories": [
          "important tourist attraction"
        ],
        "classifications": [
          {
            "code": "IMPORTANT_TOURIST_ATTRACTION",
            "names": [
              {
                "nameLocale": "en-US",
                "name": "important tourist attraction"
              }
            ]
          }
        ],
        "url": "www.akademitrader.com"
      },
      "address": {
        "municipalitySubdivision": "Denpasar Timur",
        "municipality": "Denpasar",
        "municipalitySecondarySubdivision": "Kesiman Kertalangu",
        "countrySubdivision": "Bali",
        "countrySubdivisionName": "Bali",
        "countrySubdivisionCode": "BA",
        "postalCode": "80237",
        "countryCode": "ID",
        "country": "Indonesia",
        "countryCodeISO3": "IDN",
        "freeformAddress": "Denpasar Timur Sub District, Denpasar District, Bali 80237",
        "localName": "Denpasar"
      },
      "position": {
        "lat": -8.64088,
        "lon": 115.250713
      },
      "viewport": {
        "topLeftPoint": {
          "lat": -8.63998,
          "lon": 115.2498
        },
        "btmRightPoint": {
          "lat": -8.64178,
          "lon": 115.25162
        }
      },
      "entryPoints": [
        {
          "type": "main",
          "position": {
            "lat": -8.64074,
            "lon": 115.2507
          }
        }
      ],
      "dataSources": {
        "geometry": {
          "id": ""
        }
      }
    },
    {
      "type": "POI",
      "id": "o9FHL1D7D79dD6-0Zd3iMg",
      "score": 2.0835521221,
      "info": "search:ta:360006007201926-ID",
      "poi": {
        "name": "Pt. Pinus Foresta Indonesia",
        "phone": "+62 813-8347-566",
        "categorySet": [
          {
            "id": 7376
          }
        ],
        "categories": [
          "important tourist attraction"
        ],
        "classifications": [
          {
            "code": "IMPORTANT_TOURIST_ATTRACTION",
            "names": [
              {
                "nameLocale": "en-US",
                "name": "important tourist attraction"
              }
            ]
          }
        ]
      },
      "address": {
        "streetName": "Cimanggis Golf Estate",
        "municipality": "Depok",
        "municipalitySecondarySubdivision": "Tapos",
        "countrySubdivision": "Jawa Barat",
        "countrySubdivisionName": "Jawa Barat",
        "countrySubdivisionCode": "JB",
        "postalCode": "16457",
        "countryCode": "ID",
        "country": "Indonesia",
        "countryCodeISO3": "IDN",
        "freeformAddress": "Cimanggis Golf Estate 1, Depok District, Jawa Barat 16457",
        "localName": "Depok"
      },
      "position": {
        "lat": -6.405596,
        "lon": 106.889588
      },
      "viewport": {
        "topLeftPoint": {
          "lat": -6.4047,
          "lon": 106.88868
        },
        "btmRightPoint": {
          "lat": -6.4065,
          "lon": 106.89049
        }
      },
      "entryPoints": [
        {
          "type": "main",
          "position": {
            "lat": -6.40562,
            "lon": 106.88967
          }
        }
      ],
      "dataSources": {
        "geometry": {
          "id": ""
        }
      }
    },
    {
      "type": "POI",
      "id": "dKKALOz0Gi_dwsCucWB_zA",
      "score": 2.0835521221,
      "info": "search:ta:360006007962762-ID",
      "poi": {
        "name": "Menyelam-All 4 Diving Indonesia",
        "phone": "+62 361 4492104",
        "categorySet": [
          {
            "id": 7376
          }
        ],
        "categories": [
          "important tourist attraction"
        ],
        "classifications": [
          {
            "code": "IMPORTANT_TOURIST_ATTRACTION",
            "names": [
              {
                "nameLocale": "en-US",
                "name": "important tourist attraction"
              }
            ]
          }
        ],
        "url": "www.all4divingindonesia.com/daytrips/"
      },
      "address": {
        "streetName": "Jalan Danau Tamblingan",
        "municipalitySubdivision": "Denpasar Selatan",
        "municipality": "Denpasar",
        "municipalitySecondarySubdivision": "Sanur",
        "countrySubdivision": "Bali",
        "countrySubdivisionName": "Bali",
        "countrySubdivisionCode": "BA",
        "postalCode": "80228",
        "countryCode": "ID",
        "country": "Indonesia",
        "countryCodeISO3": "IDN",
        "freeformAddress": "Jalan Danau Tamblingan, Denpasar Selatan Sub District, Denpasar District, Bali 80228",
        "localName": "Denpasar"
      },
      "position": {
        "lat": -8.69649,
        "lon": 115.263443
      },
      "viewport": {
        "topLeftPoint": {
          "lat": -8.69559,
          "lon": 115.26253
        },
        "btmRightPoint": {
          "lat": -8.69739,
          "lon": 115.26435
        }
      },
      "entryPoints": [
        {
          "type": "main",
          "position": {
            "lat": -8.6965,
            "lon": 115.26355
          }
        }
      ],
      "dataSources": {
        "geometry": {
          "id": ""
        }
      }
    },
    {
      "type": "POI",
      "id": "_4W_0rByyqz4C7XHrY4fyA",
      "score": 2.0835521221,
      "info": "search:ta:360006006793972-ID",
      "poi": {
        "name": "Taman Buaya Indonesia Jaya",
        "phone": "+62 838-9192-536",
        "categorySet": [
          {
            "id": 7376
          }
        ],
        "categories": [
          "important tourist attraction"
        ],
        "classifications": [
          {
            "code": "IMPORTANT_TOURIST_ATTRACTION",
            "names": [
              {
                "nameLocale": "en-US",
                "name": "important tourist attraction"
              }
            ]
          }
        ]
      },
      "address": {
        "streetName": "Jl. Raya Serang Cibarusah No.18",
        "municipalitySubdivision": "Serang Baru",
        "municipality": "Kota Bekasi",
        "municipalitySecondarySubdivision": "Sukaragam",
        "countrySubdivision": "Jawa Barat",
        "countrySubdivisionName": "Jawa Barat",
        "countrySubdivisionCode": "JB",
        "postalCode": "17330",
        "countryCode": "ID",
        "country": "Indonesia",
        "countryCodeISO3": "IDN",
        "freeformAddress": "Jl. Raya Serang Cibarusah No.18, Serang Baru Sub District, Kota Bekasi District, Jawa Barat 17330",
        "localName": "Kota Bekasi"
      },
      "position": {
        "lat": -6.3931,
        "lon": 107.1029
      },
      "viewport": {
        "topLeftPoint": {
          "lat": -6.3922,
          "lon": 107.102
        },
        "btmRightPoint": {
          "lat": -6.394,
          "lon": 107.1038
        }
      },
      "entryPoints": [
        {
          "type": "main",
          "position": {
            "lat": -6.39328,
            "lon": 107.10342
          }
        }
      ],
      "dataSources": {
        "geometry": {
          "id": ""
        }
      }
    },
    {
      "type": "POI",
      "id": "lzkukoUc6-rHAjHxmUd-iA",
      "score": 2.0835521221,
      "info": "search:ta:360006007240180-ID",
      "poi": {
        "name": "Wungkolo, Sulawesi Tenggara-Indonesia",
        "categorySet": [
          {
            "id": 7376
          }
        ],
        "categories": [
          "important tourist attraction"
        ],
        "classifications": [
          {
            "code": "IMPORTANT_TOURIST_ATTRACTION",
            "names": [
              {
                "nameLocale": "en-US",
                "name": "important tourist attraction"
              }
            ]
          }
        ]
      },
      "address": {
        "streetName": "Jalan Poros Langara - Lampeapi",
        "municipalitySubdivision": "Wawonii Selatan",
        "municipality": "Konawe",
        "municipalitySecondarySubdivision": "Wungkolo",
        "countrySubdivision": "Sulawesi Tenggara",
        "countrySubdivisionName": "Sulawesi Tenggara",
        "countrySubdivisionCode": "SG",
        "postalCode": "93393",
        "countryCode": "ID",
        "country": "Indonesia",
        "countryCodeISO3": "IDN",
        "freeformAddress": "Jalan Poros Langara - Lampeapi, Wawonii Selatan Sub District, Konawe District, Sulawesi Tenggara 93393",
        "localName": "Konawe"
      },
      "position": {
        "lat": -4.1465,
        "lon": 122.983
      },
      "viewport": {
        "topLeftPoint": {
          "lat": -4.1456,
          "lon": 122.9821
        },
        "btmRightPoint": {
          "lat": -4.1474,
          "lon": 122.9839
        }
      },
      "entryPoints": [
        {
          "type": "main",
          "position": {
            "lat": -4.14676,
            "lon": 122.98289
          }
        }
      ],
      "dataSources": {
        "geometry": {
          "id": ""
        }
      }
    },
    {
      "type": "POI",
      "id": "xRpu3DG2d2pVqFCvW_pidQ",
      "score": 2.0835521221,
      "info": "search:ta:360006006766860-ID",
      "poi": {
        "name": "Istana Presiden Indonesia Timur",
        "categorySet": [
          {
            "id": 7376
          }
        ],
        "categories": [
          "important tourist attraction"
        ],
        "classifications": [
          {
            "code": "IMPORTANT_TOURIST_ATTRACTION",
            "names": [
              {
                "nameLocale": "en-US",
                "name": "important tourist attraction"
              }
            ]
          }
        ]
      },
      "address": {
        "streetName": "Kec. Sukawati",
        "municipality": "Gianyar",
        "municipalitySecondarySubdivision": "Ketewel",
        "countrySubdivision": "Bali",
        "countrySubdivisionName": "Bali",
        "countrySubdivisionCode": "BA",
        "postalCode": "80582",
        "countryCode": "ID",
        "country": "Indonesia",
        "countryCodeISO3": "IDN",
        "freeformAddress": "Kec. Sukawati, Gianyar District, Bali 80582",
        "localName": "Gianyar"
      },
      "position": {
        "lat": -8.6256,
        "lon": 115.2844
      },
      "viewport": {
        "topLeftPoint": {
          "lat": -8.6247,
          "lon": 115.28349
        },
        "btmRightPoint": {
          "lat": -8.6265,
          "lon": 115.28531
        }
      },
      "entryPoints": [
        {
          "type": "main",
          "position": {
            "lat": -8.62561,
            "lon": 115.28431
          }
        }
      ],
      "dataSources": {
        "geometry": {
          "id": ""
        }
      }
    },
    {
      "type": "POI",
      "id": "D5gpAUxZew-lIMCi8H3Ccg",
      "score": 2.0835521221,
      "info": "search:ta:360006005473191-ID",
      "poi": {
        "name": "His Tours \u0026 Travel Indonesia",
        "phone": "+62 361 728177",
        "categorySet": [
          {
            "id": 7376
          }
        ],
        "categories": [
          "important tourist attraction"
        ],
        "classifications": [
          {
            "code": "IMPORTANT_TOURIST_ATTRACTION",
            "names": [
              {
                "nameLocale": "en-US",
                "name": "important tourist attraction"
              }
            ]
          }
        ],
        "url": "www.his-travel.co.id/"
      },
      "address": {
        "streetName": "Jalan Ngurah Rai By Pass",
        "municipalitySubdivision": "Denpasar Selatan",
        "municipality": "Denpasar",
        "municipalitySecondarySubdivision": "Pedungan",
        "countrySubdivision": "Bali",
        "countrySubdivisionName": "Bali",
        "countrySubdivisionCode": "BA",
        "postalCode": "80222",
        "countryCode": "ID",
        "country": "Indonesia",
        "countryCodeISO3": "IDN",
        "freeformAddress": "Jalan Ngurah Rai By Pass, Denpasar Selatan Sub District, Denpasar District, Bali 80222 (Pedungan)",
        "localName": "Denpasar"
      },
      "position": {
        "lat": -8.717112,
        "lon": 115.215613
      },
      "viewport": {
        "topLeftPoint": {
          "lat": -8.71621,
          "lon": 115.2147
        },
        "btmRightPoint": {
          "lat": -8.71801,
          "lon": 115.21652
        }
      },
      "entryPoints": [
        {
          "type": "main",
          "position": {
            "lat": -8.7172,
            "lon": 115.21559
          }
        }
      ],
      "dataSources": {
        "geometry": {
          "id": ""
        }
      }
    },
    {
      "type": "POI",
      "id": "egk7hB5vd0O9SdKGtikRNg",
      "score": 2.0835521221,
      "info": "search:ta:360006004160929-ID",
      "poi": {
        "name": "Thalassa Dive Resorts Indonesia",
        "phone": "+62 812-4350-0956",
        "categorySet": [
          {
            "id": 7376
          }
        ],
        "categories": [
          "important tourist attraction"
        ],
        "classifications": [
          {
            "code": "IMPORTANT_TOURIST_ATTRACTION",
            "names": [
              {
                "nameLocale": "en-US",
                "name": "important tourist attraction"
              }
            ]
          }
        ],
        "url": "www.thalassamanado.com"
      },
      "address": {
        "streetName": "Jalan Raya Tongkeina",
        "municipality": "Manado",
        "municipalitySecondarySubdivision": "Tongkeina",
        "countrySubdivision": "Sulawesi Utara",
        "countrySubdivisionName": "Sulawesi Utara",
        "countrySubdivisionCode": "SA",
        "postalCode": "95239",
        "countryCode": "ID",
        "country": "Indonesia",
        "countryCodeISO3": "IDN",
        "freeformAddress": "Jalan Raya Tongkeina, Manado District, Sulawesi Utara 95239",
        "localName": "Manado"
      },
      "position": {
        "lat": 1.560061,
        "lon": 124.814947
      },
      "viewport": {
        "topLeftPoint": {
          "lat": 1.56096,
          "lon": 124.81405
        },
        "btmRightPoint": {
          "lat": 1.55916,
          "lon": 124.81585
        }
      },
      "entryPoints": [
        {
          "type": "main",
          "position": {
            "lat": 1.56008,
            "lon": 124.81506
          }
        }
      ],
      "dataSources": {
        "geometry": {
          "id": ""
        }
      }
    },
    {
      "type": "POI",
      "id": "iHHgfEYWQ8MIuzDO-SIS7w",
      "score": 2.0835521221,
      "info": "search:ta:360006007149112-ID",
      "poi": {
        "name": "Sukosari, Kunir, Lumajang, Indonesia",
        "phone": "+62 822-4552-0232",
        "categorySet": [
          {
            "id": 7376
          }
        ],
        "categories": [
          "important tourist attraction"
        ],
        "classifications": [
          {
            "code": "IMPORTANT_TOURIST_ATTRACTION",
            "names": [
              {
                "nameLocale": "en-US",
                "name": "important tourist attraction"
              }
            ]
          }
        ]
      },
      "address": {
        "municipalitySubdivision": "Kunir",
        "municipality": "Lumajang",
        "municipalitySecondarySubdivision": "Sukosari",
        "countrySubdivision": "Jawa Timur",
        "countrySubdivisionName": "Jawa Timur",
        "countrySubdivisionCode": "JI",
        "postalCode": "67383",
        "countryCode": "ID",
        "country": "Indonesia",
        "countryCodeISO3": "IDN",
        "freeformAddress": "Kunir Sub District, Lumajang District, Jawa Timur 67383",
        "localName": "Lumajang"
      },
      "position": {
        "lat": -8.218548,
        "lon": 113.236468
      },
      "viewport": {
        "topLeftPoint": {
          "lat": -8.21765,
          "lon": 113.23556
        },
        "btmRightPoint": {
          "lat": -8.21945,
          "lon": 113.23738
        }
      },
      "entryPoints": [
        {
          "type": "main",
          "position": {
            "lat": -8.21868,
            "lon": 113.23702
          }
        }
      ],
      "dataSources": {
        "geometry": {
          "id": ""
        }
      }
    },
    {
      "type": "POI",
      "id": "Jj_Md9TZy8dOe0o4LVIi4A",
      "score": 2.0835521221,
      "info": "search:ta:360006005340837-ID",
      "poi": {
        "name": "Taman Mini Indonesia Indah",
        "phone": "+62 811-1058-8333",
        "categorySet": [
          {
            "id": 7376
          }
        ],
        "categories": [
          "important tourist attraction"
        ],
        "classifications": [
          {
            "code": "IMPORTANT_TOURIST_ATTRACTION",
            "names": [
              {
                "nameLocale": "en-US",
                "name": "important tourist attraction"
              }
            ]
          }
        ]
      },
      "address": {
        "streetName": "Area Sawah/Kebun",
        "municipality": "Demak",
        "municipalitySecondarySubdivision": "Bungo",
        "countrySubdivision": "Jawa Tengah",
        "countrySubdivisionName": "Jawa Tengah",
        "countrySubdivisionCode": "JT",
        "postalCode": "59554",
        "countryCode": "ID",
        "country": "Indonesia",
        "countryCodeISO3": "IDN",
        "freeformAddress": "Area Sawah/Kebun, Demak District, Jawa Tengah 59554",
        "localName": "Demak"
      },
      "position": {
        "lat": -6.775,
        "lon": 110.625
      },
      "viewport": {
        "topLeftPoint": {
          "lat": -6.7741,
          "lon": 110.62409
        },
        "btmRightPoint": {
          "lat": -6.7759,
          "lon": 110.62591
        }
      },
      "entryPoints": [
        {
          "type": "main",
          "position": {
            "lat": -6.77513,
            "lon": 110.6254
          }
        }
      ],
      "dataSources": {
        "geometry": {
          "id": ""
        }
      }
    },
    {
      "type": "POI",
      "id": "jq-kAq7xbW3Li2qhpKIDGg",
      "score": 2.0835521221,
      "info": "search:ta:360006007181283-ID",
      "poi": {
        "name": "Pt.garuda Sentosa Indonesia",
        "categorySet": [
          {
            "id": 7376
          }
        ],
        "categories": [
          "important tourist attraction"
        ],
        "classifications": [
          {
            "code": "IMPORTANT_TOURIST_ATTRACTION",
            "names": [
              {
                "nameLocale": "en-US",
                "name": "important tourist attraction"
              }
            ]
          }
        ]
      },
      "address": {
        "streetName": "Kec. Tampan",
        "municipalitySubdivision": "Tampan",
        "municipality": "Pekanbaru",
        "municipalitySecondarySubdivision": "Bina Widya",
        "countrySubdivision": "Riau",
        "countrySubdivisionName": "Riau",
        "countrySubdivisionCode": "RI",
        "postalCode": "28291",
        "countryCode": "ID",
        "country": "Indonesia",
        "countryCodeISO3": "IDN",
        "freeformAddress": "Kec. Tampan, Tampan Sub District, Pekanbaru District, Riau 28291",
        "localName": "Pekanbaru"
      },
      "position": {
        "lat": 0.4955,
        "lon": 101.367
      },
      "viewport": {
        "topLeftPoint": {
          "lat": 0.49677,
          "lon": 101.36573
        },
        "btmRightPoint": {
          "lat": 0.49423,
          "lon": 101.36827
        }
      },
      "entryPoints": [
        {
          "type": "main",
          "position": {
            "lat": 0.49531,
            "lon": 101.36574
          }
        }
      ],
      "dataSources": {
        "geometry": {
          "id": ""
        }
      }
    },
    {
      "type": "POI",
      "id": "Kp0YZ-cGczyNyu5mv_zVcA",
      "score": 2.0835521221,
      "info": "search:ta:360006003041677-ID",
      "poi": {
        "name": "Sekretariat Kpa Gersang Indonesia",
        "categorySet": [
          {
            "id": 7376
          }
        ],
        "categories": [
          "important tourist attraction"
        ],
        "classifications": [
          {
            "code": "IMPORTANT_TOURIST_ATTRACTION",
            "names": [
              {
                "nameLocale": "en-US",
                "name": "important tourist attraction"
              }
            ]
          }
        ]
      },
      "address": {
        "streetName": "Jl. Pongtiku No.87",
        "municipalitySubdivision": "Kesu",
        "municipality": "Toraja Utara",
        "municipalitySecondarySubdivision": "Lembang Rindingbatu",
        "countrySubdivision": "Sulawesi Selatan",
        "countrySubdivisionName": "Sulawesi Selatan",
        "countrySubdivisionCode": "SN",
        "postalCode": "91834",
        "countryCode": "ID",
        "country": "Indonesia",
        "countryCodeISO3": "IDN",
        "freeformAddress": "Jl. Pongtiku No.87, Kesu Sub District, Toraja Utara District, Sulawesi Selatan 91834",
        "localName": "Toraja Utara"
      },
      "position": {
        "lat": -2.9832,
        "lon": 119.8932
      },
      "viewport": {
        "topLeftPoint": {
          "lat": -2.9823,
          "lon": 119.8923
        },
        "btmRightPoint": {
          "lat": -2.9841,
          "lon": 119.8941
        }
      },
      "entryPoints": [
        {
          "type": "main",
          "position": {
            "lat": -2.98319,
            "lon": 119.89311
          }
        }
      ],
      "dataSources": {
        "geometry": {
          "id": ""
        }
      }
    },
    {
      "type": "POI",
      "id": "oEvgf8rWLiAdJm7aBaWyEg",
      "score": 2.0835521221,
      "info": "search:ta:360006007296837-ID",
      "poi": {
        "name": "Pt. Gombekk Boer Indonesia",
        "categorySet": [
          {
            "id": 7376
          }
        ],
        "categories": [
          "important tourist attraction"
        ],
        "classifications": [
          {
            "code": "IMPORTANT_TOURIST_ATTRACTION",
            "names": [
              {
                "nameLocale": "en-US",
                "name": "important tourist attraction"
              }
            ]
          }
        ]
      },
      "address": {
        "streetName": "Bulurejo",
        "municipality": "Kota Blitar",
        "municipalitySecondarySubdivision": "Resapombo",
        "countrySubdivision": "Jawa Timur",
        "countrySubdivisionName": "Jawa Timur",
        "countrySubdivisionCode": "JI",
        "postalCode": "66186",
        "countryCode": "ID",
        "country": "Indonesia",
        "countryCodeISO3": "IDN",
        "freeformAddress": "Bulurejo, Kota Blitar District, Jawa Timur 66186",
        "localName": "Kota Blitar"
      },
      "position": {
        "lat": -8.0411,
        "lon": 112.4225
      },
      "viewport": {
        "topLeftPoint": {
          "lat": -8.0402,
          "lon": 112.42159
        },
        "btmRightPoint": {
          "lat": -8.042,
          "lon": 112.42341
        }
      },
      "entryPoints": [
        {
          "type": "main",
          "position": {
            "lat": -8.04078,
            "lon": 112.42162
          }
        }
      ],
      "dataSources": {
        "geometry": {
          "id": ""
        }
      }
    },
    {
      "type": "POI",
      "id": "8In3k0GlkZXKhLSMOUX6QA",
      "score": 2.0835521221,
      "info": "search:ta:360006004415567-ID",
      "poi": {
        "name": "Museum Alam Marmer Indonesia",
        "categorySet": [
          {
            "id": 7376
          }
        ],
        "categories": [
          "important tourist attraction"
        ],
        "classifications": [
          {
            "code": "IMPORTANT_TOURIST_ATTRACTION",
            "names": [
              {
                "nameLocale": "en-US",
                "name": "important tourist attraction"
              }
            ]
          }
        ]
      },
      "address": {
        "streetName": "Museum Alam Marmer Indonesia",
        "municipality": "Magelang",
        "municipalitySecondarySubdivision": "Ngargoretno",
        "countrySubdivision": "Jawa Tengah",
        "countrySubdivisionName": "Jawa Tengah",
        "countrySubdivisionCode": "JT",
        "postalCode": "56553",
        "countryCode": "ID",
        "country": "Indonesia",
        "countryCodeISO3": "IDN",
        "freeformAddress": "Museum Alam Marmer Indonesia, Magelang District, Jawa Tengah 56553",
        "localName": "Magelang"
      },
      "position": {
        "lat": -7.6353,
        "lon": 110.16
      },
      "viewport": {
        "topLeftPoint": {
          "lat": -7.63378,
          "lon": 110.15846
        },
        "btmRightPoint": {
          "lat": -7.63682,
          "lon": 110.16154
        }
      },
      "entryPoints": [
        {
          "type": "main",
          "position": {
            "lat": -7.6367,
            "lon": 110.15939
          }
        }
      ],
      "dataSources": {
        "geometry": {
          "id": ""
        }
      }
    },
    {
      "type": "POI",
      "id": "4QLxdJc1w25yDWl9CnJDsw",
      "score": 2.0835521221,
      "info": "search:ta:360006002801457-ID",
      "poi": {
        "name": "Wisata Kampung Layer Indonesia",
        "phone": "+62 812-1625-755",
        "categorySet": [
          {
            "id": 7376
          }
        ],
        "categories": [
          "important tourist attraction"
        ],
        "classifications": [
          {
            "code": "IMPORTANT_TOURIST_ATTRACTION",
            "names": [
              {
                "nameLocale": "en-US",
                "name": "important tourist attraction"
              }
            ]
          }
        ]
      },
      "address": {
        "streetName": "Unnamed Road",
        "municipality": "Kediri",
        "municipalitySecondarySubdivision": "Bleber",
        "countrySubdivision": "Jawa Timur",
        "countrySubdivisionName": "Jawa Timur",
        "countrySubdivisionCode": "JI",
        "postalCode": "64172",
        "countryCode": "ID",
        "country": "Indonesia",
        "countryCodeISO3": "IDN",
        "freeformAddress": "Unnamed Road, Kediri District, Jawa Timur 64172",
        "localName": "Kediri"
      },
      "position": {
        "lat": -7.983976,
        "lon": 111.966305
      },
      "viewport": {
        "topLeftPoint": {
          "lat": -7.98308,
          "lon": 111.9654
        },
        "btmRightPoint": {
          "lat": -7.98488,
          "lon": 111.96721
        }
      },
      "entryPoints": [
        {
          "type": "main",
          "position": {
            "lat": -7.98406,
            "lon": 111.96628
          }
        }
      ],
      "dataSources": {
        "geometry": {
          "id": ""
        }
      }
    },
    {
      "type": "POI",
      "id": "mGm9O1CSmqu001KKe7RCmQ",
      "score": 2.0835521221,
      "info": "search:ta:360006006076191-ID",
      "poi": {
        "name": "Taman Varigata Indonesia Permai",
        "categorySet": [
          {
            "id": 7376
          }
        ],
        "categories": [
          "important tourist attraction"
        ],
        "classifications": [
          {
            "code": "IMPORTANT_TOURIST_ATTRACTION",
            "names": [
              {
                "nameLocale": "en-US",
                "name": "important tourist attraction"
              }
            ]
          }
        ]
      },
      "address": {
        "streetName": "Sumberagung",
        "municipality": "Kediri",
        "municipalitySecondarySubdivision": "Srikaton",
        "countrySubdivision": "Jawa Timur",
        "countrySubdivisionName": "Jawa Timur",
        "countrySubdivisionCode": "JI",
        "postalCode": "64172",
        "countryCode": "ID",
        "country": "Indonesia",
        "countryCodeISO3": "IDN",
        "freeformAddress": "Sumberagung, Kediri District, Jawa Timur 64172",
        "localName": "Kediri"
      },
      "position": {
        "lat": -7.9804,
        "lon": 112.0166
      },
      "viewport": {
        "topLeftPoint": {
          "lat": -7.9795,
          "lon": 112.01569
        },
        "btmRightPoint": {
          "lat": -7.9813,
          "lon": 112.01751
        }
      },
      "entryPoints": [
        {
          "type": "main",
          "position": {
            "lat": -7.98054,
            "lon": 112.0166
          }
        }
      ],
      "dataSources": {
        "geometry": {
          "id": ""
        }
      }
    },
    {
      "type": "POI",
      "id": "xOvfI8Nf_RuJTO4H_TBCSQ",
      "score": 2.0835521221,
      "info": "search:ta:360006004051255-ID",
      "poi": {
        "name": "Taman Mini Indonesia Indah",
        "categorySet": [
          {
            "id": 7376
          }
        ],
        "categories": [
          "important tourist attraction"
        ],
        "classifications": [
          {
            "code": "IMPORTANT_TOURIST_ATTRACTION",
            "names": [
              {
                "nameLocale": "en-US",
                "name": "important tourist attraction"
              }
            ]
          }
        ]
      },
      "address": {
        "streetName": "Tmii No.14",
        "municipality": "Jakarta",
        "municipalitySecondarySubdivision": "Pinang Ranti",
        "countrySubdivision": "DKI Jakarta",
        "countrySubdivisionName": "DKI Jakarta",
        "countrySubdivisionCode": "JK",
        "postalCode": "13560",
        "countryCode": "ID",
        "country": "Indonesia",
        "countryCodeISO3": "IDN",
        "freeformAddress": "Tmii No.14 2, Jakarta District, DKI Jakarta 13560",
        "localName": "Jakarta"
      },
      "position": {
        "lat": -6.290803,
        "lon": 106.888367
      },
      "viewport": {
        "topLeftPoint": {
          "lat": -6.2899,
          "lon": 106.88746
        },
        "btmRightPoint": {
          "lat": -6.2917,
          "lon": 106.88927
        }
      },
      "entryPoints": [
        {
          "type": "main",
          "position": {
            "lat": -6.2908,
            "lon": 106.88828
          }
        }
      ],
      "dataSources": {
        "geometry": {
          "id": ""
        }
      }
    },
    {
      "type": "POI",
      "id": "jrBiMwpO1uMD88bA8Oxe7Q",
      "score": 2.0835521221,
      "info": "search:ta:360006007955961-ID",
      "poi": {
        "name": "Pt. Otsuka Distribution Indonesia",
        "phone": "+62 21 7507747",
        "categorySet": [
          {
            "id": 7376
          }
        ],
        "categories": [
          "important tourist attraction"
        ],
        "classifications": [
          {
            "code": "IMPORTANT_TOURIST_ATTRACTION",
            "names": [
              {
                "nameLocale": "en-US",
                "name": "important tourist attraction"
              }
            ]
          }
        ]
      },
      "address": {
        "streetName": "Jl. Kabupaten No.2",
        "municipalitySubdivision": "Gamping",
        "municipality": "Sleman",
        "municipalitySecondarySubdivision": "Trihanggo",
        "countrySubdivision": "Yogyakarta",
        "countrySubdivisionName": "Yogyakarta",
        "countrySubdivisionCode": "YO",
        "postalCode": "55291",
        "countryCode": "ID",
        "country": "Indonesia",
        "countryCodeISO3": "IDN",
        "freeformAddress": "Jl. Kabupaten No.2, Gamping Sub District, Sleman District, Yogyakarta 55291",
        "localName": "Sleman"
      },
      "position": {
        "lat": -7.7552,
        "lon": 110.3467
      },
      "viewport": {
        "topLeftPoint": {
          "lat": -7.7543,
          "lon": 110.34579
        },
        "btmRightPoint": {
          "lat": -7.7561,
          "lon": 110.34761
        }
      },
      "entryPoints": [
        {
          "type": "main",
          "position": {
            "lat": -7.75523,
            "lon": 110.34684
          }
        }
      ],
      "dataSources": {
        "geometry": {
          "id": ""
        }
      }
    },
    {
      "type": "POI",
      "id": "TMNnjT7hwUyMo5LnR7GfIA",
      "score": 2.0835521221,
      "info": "search:ta:360006006128577-ID",
      "poi": {
        "name": "Cv. Pondok Agro Indonesia",
        "categorySet": [
          {
            "id": 7376
          }
        ],
        "categories": [
          "important tourist attraction"
        ],
        "classifications": [
          {
            "code": "IMPORTANT_TOURIST_ATTRACTION",
            "names": [
              {
                "nameLocale": "en-US",
                "name": "important tourist attraction"
              }
            ]
          }
        ]
      },
      "address": {
        "streetName": "Tasikmalaya Regency",
        "municipality": "Kota Tasikmalaya",
        "municipalitySecondarySubdivision": "Singkup",
        "countrySubdivision": "Jawa Barat",
        "countrySubdivisionName": "Jawa Barat",
        "countrySubdivisionCode": "JB",
        "postalCode": "46196",
        "countryCode": "ID",
        "country": "Indonesia",
        "countryCodeISO3": "IDN",
        "freeformAddress": "Tasikmalaya Regency, Kota Tasikmalaya District, Jawa Barat 46196",
        "localName": "Kota Tasikmalaya"
      },
      "position": {
        "lat": -7.3405,
        "lon": 108.2771
      },
      "viewport": {
        "topLeftPoint": {
          "lat": -7.3396,
          "lon": 108.27619
        },
        "btmRightPoint": {
          "lat": -7.3414,
          "lon": 108.27801
        }
      },
      "entryPoints": [
        {
          "type": "main",
          "position": {
            "lat": -7.33968,
            "lon": 108.27736
          }
        }
      ],
      "dataSources": {
        "geometry": {
          "id": ""
        }
      }
    },
    {
      "type": "POI",
      "id": "nUS5mfANgg1JLRmSYQJ0vQ",
      "score": 2.0835521221,
      "info": "search:ta:360006003544641-ID",
      "poi": {
        "name": "Kawasan Industri Hijau Indonesia",
        "categorySet": [
          {
            "id": 7376
          }
        ],
        "categories": [
          "important tourist attraction"
        ],
        "classifications": [
          {
            "code": "IMPORTANT_TOURIST_ATTRACTION",
            "names": [
              {
                "nameLocale": "en-US",
                "name": "important tourist attraction"
              }
            ]
          }
        ]
      },
      "address": {
        "streetName": "Kec. Tj. Palas Tim",
        "municipalitySubdivision": "Tanjung Palas Timur",
        "municipality": "Bulungan",
        "municipalitySecondarySubdivision": "Mangku Padi",
        "countrySubdivision": "Kalimantan Utara",
        "countrySubdivisionName": "Kalimantan Utara",
        "countrySubdivisionCode": "KU",
        "postalCode": "77215",
        "countryCode": "ID",
        "country": "Indonesia",
        "countryCodeISO3": "IDN",
        "freeformAddress": "Kec. Tj. Palas Tim, Tanjung Palas Timur Sub District, Bulungan District, Kalimantan Utara 77215",
        "localName": "Bulungan"
      },
      "position": {
        "lat": 2.5279,
        "lon": 117.8589
      },
      "viewport": {
        "topLeftPoint": {
          "lat": 2.5288,
          "lon": 117.858
        },
        "btmRightPoint": {
          "lat": 2.527,
          "lon": 117.8598
        }
      },
      "entryPoints": [
        {
          "type": "main",
          "position": {
            "lat": 2.52775,
            "lon": 117.85805
          }
        }
      ],
      "dataSources": {
        "geometry": {
          "id": ""
        }
      }
    },
    {
      "type": "POI",
      "id": "ia5xE3OHLiKRbHmDF7aAJQ",
      "score": 2.0745999813,
      "info": "search:ta:360007000034123-ID",
      "poi": {
        "name": "Santika Indonesia Hotels \u0026 Resorts",
        "phone": "+62 561 733777",
        "categorySet": [
          {
            "id": 7314003
          }
        ],
        "categories": [
          "hotel",
          "hotel/motel"
        ],
        "classifications": [
          {
            "code": "HOTEL_MOTEL",
            "names": [
              {
                "nameLocale": "en-US",
                "name": "hotel"
              },
              {
                "nameLocale": "en-US",
                "name": "hotel/motel"
              }
            ]
          }
        ],
        "url": "www.santika.com"
      },
      "address": {
        "municipalitySubdivision": "Pontianak Kota",
        "municipality": "Pontianak",
        "municipalitySecondarySubdivision": "Darat Sekip",
        "countrySubdivision": "Kalimantan Barat",
        "countrySubdivisionName": "Kalimantan Barat",
        "countrySubdivisionCode": "KB",
        "postalCode": "78122",
        "countryCode": "ID",
        "country": "Indonesia",
        "countryCodeISO3": "IDN",
        "freeformAddress": "Pontianak Kota Sub District, Pontianak District, Kalimantan Barat 78122",
        "localName": "Pontianak"
      },
      "position": {
        "lat": -0.027417,
        "lon": 109.341543
      },
      "viewport": {
        "topLeftPoint": {
          "lat": -0.02652,
          "lon": 109.34064
        },
        "btmRightPoint": {
          "lat": -0.02832,
          "lon": 109.34244
        }
      },
      "entryPoints": [
        {
          "type": "main",
          "position": {
            "lat": -0.02753,
            "lon": 109.3413
          }
        }
      ],
      "dataSources": {
        "geometry": {
          "id": ""
        }
      }
    },
    {
      "type": "POI",
      "id": "2oQ5S67-sDfRa8UnBHb8EQ",
      "score": 2.0745999813,
      "info": "search:ta:360006002593396-ID",
      "poi": {
        "name": "Santika Indonesia Hotels \u0026 Resorts",
        "phone": "+62 21 2700027",
        "categorySet": [
          {
            "id": 7314003
          }
        ],
        "categories": [
          "hotel",
          "hotel/motel"
        ],
        "classifications": [
          {
            "code": "HOTEL_MOTEL",
            "names": [
              {
                "nameLocale": "en-US",
                "name": "hotel"
              },
              {
                "nameLocale": "en-US",
                "name": "hotel/motel"
              }
            ]
          }
        ],
        "url": "mysantika.com/indonesia/bandung/hotel-santika-garut"
      },
      "address": {
        "streetName": "Jalan Pasawahan Cipanas",
        "municipalitySubdivision": "Tarogong Kaler",
        "municipality": "Garut Kota",
        "municipalitySecondarySubdivision": "Pananjung",
        "countrySubdivision": "Jawa Barat",
        "countrySubdivisionName": "Jawa Barat",
        "countrySubdivisionCode": "JB",
        "postalCode": "44151",
        "countryCode": "ID",
        "country": "Indonesia",
        "countryCodeISO3": "IDN",
        "freeformAddress": "Jalan Pasawahan Cipanas, Tarogong Kaler Sub District, Garut Kota District, Jawa Barat 44151",
        "localName": "Garut Kota"
      },
      "position": {
        "lat": -7.174778,
        "lon": 107.886667
      },
      "viewport": {
        "topLeftPoint": {
          "lat": -7.17388,
          "lon": 107.88576
        },
        "btmRightPoint": {
          "lat": -7.17568,
          "lon": 107.88757
        }
      },
      "entryPoints": [
        {
          "type": "main",
          "position": {
            "lat": -7.17552,
            "lon": 107.88667
          }
        }
      ],
      "dataSources": {
        "geometry": {
          "id": ""
        }
      }
    },
    {
      "type": "POI",
      "id": "PsJJSUF6_t19lA0LPTXYAA",
      "score": 2.0745999813,
      "info": "search:ta:360006005301226-ID",
      "poi": {
        "name": "Santika Indonesia Hotels \u0026 Resorts",
        "categorySet": [
          {
            "id": 7314003
          }
        ],
        "categories": [
          "hotel",
          "hotel/motel"
        ],
        "classifications": [
          {
            "code": "HOTEL_MOTEL",
            "names": [
              {
                "nameLocale": "en-US",
                "name": "hotel"
              },
              {
                "nameLocale": "en-US",
                "name": "hotel/motel"
              }
            ]
          }
        ],
        "url": "www.santika.com"
      },
      "address": {
        "streetName": "Jalan Cipto Mangun Kusumo",
        "municipalitySubdivision": "Selong",
        "municipality": "Lombok",
        "municipalitySecondarySubdivision": "Khusus Kota Selong",
        "countrySubdivision": "Nusa Tenggara Barat",
        "countrySubdivisionName": "Nusa Tenggara Barat",
        "countrySubdivisionCode": "NB",
        "postalCode": "84661",
        "countryCode": "ID",
        "country": "Indonesia",
        "countryCodeISO3": "IDN",
        "freeformAddress": "Jalan Cipto Mangun Kusumo, Selong Sub District, Lombok District, Nusa Tenggara Barat 84661",
        "localName": "Lombok"
      },
      "position": {
        "lat": -8.653444,
        "lon": 116.528538
      },
      "viewport": {
        "topLeftPoint": {
          "lat": -8.65254,
          "lon": 116.52763
        },
        "btmRightPoint": {
          "lat": -8.65434,
          "lon": 116.52945
        }
      },
      "entryPoints": [
        {
          "type": "main",
          "position": {
            "lat": -8.65333,
            "lon": 116.52818
          }
        }
      ],
      "dataSources": {
        "geometry": {
          "id": ""
        }
      }
    },
    {
      "type": "POI",
      "id": "EVg2KRYX1g5LUUUpRRzrGA",
      "score": 2.0745999813,
      "info": "search:ta:360009000616949-ID",
      "poi": {
        "name": "Hotel Santika Bengkulu",
        "phone": "+62 736 25858",
        "categorySet": [
          {
            "id": 7314003
          }
        ],
        "categories": [
          "hotel",
          "hotel/motel"
        ],
        "classifications": [
          {
            "code": "HOTEL_MOTEL",
            "names": [
              {
                "nameLocale": "en-US",
                "name": "hotel"
              },
              {
                "nameLocale": "en-US",
                "name": "hotel/motel"
              }
            ]
          }
        ],
        "url": "www.santika.com"
      },
      "address": {
        "streetName": "Jl. Jati No.45",
        "municipalitySubdivision": "Ratu Agung",
        "municipality": "Bengkulu",
        "municipalitySecondarySubdivision": "Sawah Lebar",
        "countrySubdivision": "Bengkulu",
        "countrySubdivisionName": "Bengkulu",
        "countrySubdivisionCode": "BE",
        "postalCode": "39225",
        "countryCode": "ID",
        "country": "Indonesia",
        "countryCodeISO3": "IDN",
        "freeformAddress": "Jl. Jati No.45, Ratu Agung Sub District, Bengkulu District, Bengkulu 39225",
        "localName": "Bengkulu"
      },
      "position": {
        "lat": -3.7979,
        "lon": 102.273
      },
      "viewport": {
        "topLeftPoint": {
          "lat": -3.797,
          "lon": 102.2721
        },
        "btmRightPoint": {
          "lat": -3.7988,
          "lon": 102.2739
        }
      },