{
  "summary": {
    "query": "singapore",
    "queryType": "NON_NEAR",
    "queryTime": 474,
    "numResults": 100,
    "offset": 0,
    "totalResults": 100,
    "fuzzyLevel": 1
  },
  "results": [
    {
      "type": "POI",
      "id": "vmtduNvn0v5SgACXa_rjBA",
      "score": 2.6342635155,
      "info": "search:ta:702009000038242-SG",
      "poi": {
        "name": "Singapore Flyer",
        "phone": "+65 6333 3311",
        "categorySet": [
          {
            "id": 7376002
          }
        ],
        "categories": [
          "building",
          "important tourist attraction"
        ],
        "classifications": [
          {
            "code": "IMPORTANT_TOURIST_ATTRACTION",
            "names": [
              {
                "nameLocale": "en-US",
                "name": "important tourist attraction"
              },
              {
                "nameLocale": "en-US",
                "name": "building"
              }
            ]
          }
        ],
        "url": "www.singaporeflyer.com"
      },
      "address": {
        "streetName": "Raffles Avenue",
        "municipalitySubdivision": "Downtown Core",
        "municipality": "Singapore",
        "municipalitySecondarySubdivision": "",
        "countrySubdivision": "",
        "countrySubdivisionName": "",
        "countrySubdivisionCode": "",
        "postalCode": "03",
        "countryCode": "SG",
        "country": "Singapore",
        "countryCodeISO3": "SGP",
        "freeformAddress": "30 Raffles Avenue, Singapore, 039803",
        "localName": "Singapore"
      },
      "position": {
        "lat": 1.289547,
        "lon": 103.863594
      },
      "viewport": {
        "topLeftPoint": {
          "lat": 1.29045,
          "lon": 103.86269
        },
        "btmRightPoint": {
          "lat": 1.28865,
          "lon": 103.86449
        }
      },
      "entryPoints": [
        {
          "type": "main",
          "position": {
            "lat": 1.2897,
            "lon": 103.86377
          }
        }
      ],
      "dataSources": {
        "geometry": {
          "id": ""
        }
      }
    },
    {
      "type": "POI",
      "id": "e9Z3LUYacB5Gnr1VfDGquA",
      "score": 2.4851543903,
      "info": "search:ta:702009000098712-SG",
      "poi": {
        "name": "The Singapore Mint",
        "categorySet": [
          {
            "id": 9383
          }
        ],
        "categories": [
          "industrial building"
        ],
        "classifications": [
          {
            "code": "INDUSTRIAL_BUILDING",
            "names": [
              {
                "nameLocale": "en-US",
                "name": "industrial building"
              }
            ]
          }
        ]
      },
      "address": {
        "streetName": "Teban Gardens Crescent",
        "municipalitySubdivision": "Jurong East",
        "municipality": "Singapore",
        "municipalitySecondarySubdivision": "",
        "countrySubdivision": "",
        "countrySubdivisionName": "",
        "countrySubdivisionCode": "",
        "postalCode": "608928",
        "countryCode": "SG",
        "country": "Singapore",
        "countryCodeISO3": "SGP",
        "freeformAddress": "20 Teban Gardens Crescent, Singapore, 608928",
        "localName": "Singapore"
      },
      "position": {
        "lat": 1.32526,
        "lon": 103.739476
      },
      "viewport": {
        "topLeftPoint": {
          "lat": 1.32616,
          "lon": 103.73858
        },
        "btmRightPoint": {
          "lat": 1.32436,
          "lon": 103.74038
        }
      },
      "entryPoints": [
        {
          "type": "main",
          "position": {
            "lat": 1.325,
            "lon": 103.73927
          }
        }
      ],
      "dataSources": {
        "geometry": {
          "id": ""
        }
      }
    },
    {
      "type": "POI",
      "id": "yM6S6rm-qJXm9oI_-r5APA",
      "score": 2.461026907,
      "info": "search:ta:702009000052645-SG",
      "poi": {
        "name": "Raffles Hotel Singapore",
        "phone": "+65 6337 1886",
        "categorySet": [
          {
            "id": 7314003
          }
        ],
        "categories": [
          "hotel",
          "hotel/motel"
        ],
        "classifications": [
          {
            "code": "HOTEL_MOTEL",
            "names": [
              {
                "nameLocale": "en-US",
                "name": "hotel"
              },
              {
                "nameLocale": "en-US",
                "name": "hotel/motel"
              }
            ]
          }
        ],
        "url": "www.raffles.com"
      },
      "address": {
        "streetName": "Beach Road",
        "municipalitySubdivision": "Downtown Core",
        "municipality": "Singapore",
        "municipalitySecondarySubdivision": "",
        "countrySubdivision": "",
        "countrySubdivisionName": "",
        "countrySubdivisionCode": "",
        "postalCode": "18",
        "countryCode": "SG",
        "country": "Singapore",
        "countryCodeISO3": "SGP",
        "freeformAddress": "1 Beach Road, Singapore, 189673",
        "localName": "Singapore"
      },
      "position": {
        "lat": 1.294694,
        "lon": 103.854647
      },
      "viewport": {
        "topLeftPoint": {
          "lat": 1.29606,
          "lon": 103.85328
        },
        "btmRightPoint": {
          "lat": 1.29332,
          "lon": 103.85602
        }
      },
      "entryPoints": [
        {
          "type": "main",
          "position": {
            "lat": 1.29605,
            "lon": 103.85445
          }
        },
        {
          "type": "main",
          "position": {
            "lat": 1.29462,
            "lon": 103.85475
          }
        }
      ],
      "dataSources": {
        "geometry": {
          "id": ""
        }
      }
    },
    {
      "type": "POI",
      "id": "ryi8HotXPBEak_Ac11pgxg",
      "score": 2.337975502,
      "info": "search:ta:458013025045406-MY",
      "poi": {
        "name": "Tanjung Kupang Checkpoint Tuas Checkpoint",
        "categorySet": [
          {
            "id": 7366
          }
        ],
        "categories": [
          "frontier crossing"
        ],
        "classifications": [
          {
            "code": "FRONTIER_CROSSING",
            "names": [
              {
                "nameLocale": "en-US",
                "name": "frontier crossing"
              }
            ]
          }
        ]
      },
      "address": {
        "streetName": "Lebuhraya Laluan Ke II",
        "municipalitySubdivision": "Kampung Ladang",
        "municipality": "Gelang Patah",
        "municipalitySecondarySubdivision": "",
        "countrySubdivision": "Johor",
        "countrySubdivisionName": "Johor",
        "countrySubdivisionCode": "1",
        "postalCode": "81550",
        "countryCode": "MY",
        "country": "Malaysia",
        "countryCodeISO3": "MYS",
        "freeformAddress": "Lebuhraya Laluan Ke II, Kampung Ladang, 81550 Gelang Patah, Johor",
        "localName": "Gelang Patah"
      },
      "position": {
        "lat": 1.359221,
        "lon": 103.621932
      },
      "viewport": {
        "topLeftPoint": {
          "lat": 1.36012,
          "lon": 103.62103
        },
        "btmRightPoint": {
          "lat": 1.35832,
          "lon": 103.62283
        }
      },
      "entryPoints": null,
      "dataSources": {
        "geometry": {
          "id": ""
        }
      }
    },
    {
      "type": "POI",
      "id": "b4v1SLCPNXQYq3LkWmUVOQ",
      "score": 2.337975502,
      "info": "search:ta:702013000235971-SG",
      "poi": {
        "name": "Tuas Checkpoint Tanjung Kupang Checkpoint",
        "categorySet": [
          {
            "id": 7366
          }
        ],
        "categories": [
          "frontier crossing"
        ],
        "classifications": [
          {
            "code": "FRONTIER_CROSSING",
            "names": [
              {
                "nameLocale": "en-US",
                "name": "frontier crossing"
              }
            ]
          }
        ]
      },
      "address": {
        "streetName": "Second Link",
        "municipalitySubdivision": "Tuas",
        "municipality": "Singapore",
        "municipalitySecondarySubdivision": "",
        "countrySubdivision": "",
        "countrySubdivisionName": "",
        "countrySubdivisionCode": "",
        "postalCode": "63",
        "countryCode": "SG",
        "country": "Singapore",
        "countryCodeISO3": "SGP",
        "freeformAddress": "Second Link, Singapore, 63",
        "localName": "Singapore"
      },
      "position": {
        "lat": 1.34971,
        "lon": 103.63443
      },
      "viewport": {
        "topLeftPoint": {
          "lat": 1.35061,
          "lon": 103.63353
        },
        "btmRightPoint": {
          "lat": 1.34881,
          "lon": 103.63533
        }
      },
      "entryPoints": null,
      "dataSources": {
        "geometry": {
          "id": ""
        }
      }
    },
    {
      "type": "POI",
      "id": "1f7IyPam_8nbYahDE-Cp1Q",
      "score": 2.3154950142,
      "info": "search:ta:458013025051019-MY",
      "poi": {
        "name": "Tambak Johor Checkpoint Woodlands Checkpoint",
        "categorySet": [
          {
            "id": 7366
          }
        ],
        "categories": [
          "frontier crossing"
        ],
        "classifications": [
          {
            "code": "FRONTIER_CROSSING",
            "names": [
              {
                "nameLocale": "en-US",
                "name": "frontier crossing"
              }
            ]
          }
        ]
      },
      "address": {
        "streetName": "Tambak Johor",
        "municipalitySubdivision": "Tanjung Puteri",
        "municipality": "Johor Bahru",
        "municipalitySecondarySubdivision": "",
        "countrySubdivision": "Johor",
        "countrySubdivisionName": "Johor",
        "countrySubdivisionCode": "1",
        "postalCode": "80000",
        "countryCode": "MY",
        "country": "Malaysia",
        "countryCodeISO3": "MYS",
        "freeformAddress": "Tambak Johor, Tanjung Puteri, 80000 Johor Bahru, Johor",
        "localName": "Johor Bahru"
      },
      "position": {
        "lat": 1.455209,
        "lon": 103.7685
      },
      "viewport": {
        "topLeftPoint": {
          "lat": 1.45611,
          "lon": 103.7676
        },
        "btmRightPoint": {
          "lat": 1.45431,
          "lon": 103.7694
        }
      },
      "entryPoints": null,
      "dataSources": {
        "geometry": {
          "id": ""
        }
      }
    },
    {
      "type": "POI",
      "id": "KvCHEiZm3lYgCofIX8dDpQ",
      "score": 2.3154950142,
      "info": "search:ta:702013000221258-SG",
      "poi": {
        "name": "Woodlands Checkpoint Tambak Johor Checkpoint",
        "categorySet": [
          {
            "id": 7366
          }
        ],
        "categories": [
          "frontier crossing"
        ],
        "classifications": [
          {
            "code": "FRONTIER_CROSSING",
            "names": [
              {
                "nameLocale": "en-US",
                "name": "frontier crossing"
              }
            ]
          }
        ]
      },
      "address": {
        "streetName": "Causeway",
        "municipalitySubdivision": "Woodlands",
        "municipality": "Singapore",
        "municipalitySecondarySubdivision": "",
        "countrySubdivision": "",
        "countrySubdivisionName": "",
        "countrySubdivisionCode": "",
        "postalCode": "73",
        "countryCode": "SG",
        "country": "Singapore",
        "countryCodeISO3": "SGP",
        "freeformAddress": "Causeway, Singapore, 73",
        "localName": "Singapore"
      },
      "position": {
        "lat": 1.449244,
        "lon": 103.76999
      },
      "viewport": {
        "topLeftPoint": {
          "lat": 1.45014,
          "lon": 103.76909
        },
        "btmRightPoint": {
          "lat": 1.44834,
          "lon": 103.77089
        }
      },
      "entryPoints": null,
      "dataSources": {
        "geometry": {
          "id": ""
        }
      }
    },
    {
      "type": "POI",
      "id": "UsogSvlGszv0Dpn5H5-H5g",
      "score": 2.1247806549,
      "info": "search:ta:702009000043646-SG",
      "poi": {
        "name": "Singapore Changi Airport",
        "phone": "+65 6595 6868",
        "categorySet": [
          {
            "id": 7383002
          }
        ],
        "categories": [
          "airport",
          "public authority"
        ],
        "classifications": [
          {
            "code": "AIRPORT",
            "names": [
              {
                "nameLocale": "en-US",
                "name": "airport"
              },
              {
                "nameLocale": "en-US",
                "name": "public authority"
              }
            ]
          }
        ],
        "url": "www.changiairport.com"
      },
      "address": {
        "streetName": "Airport Boulevard",
        "municipalitySubdivision": "Changi",
        "municipality": "Singapore",
        "municipalitySecondarySubdivision": "",
        "countrySubdivision": "",
        "countrySubdivisionName": "",
        "countrySubdivisionCode": "",
        "postalCode": "81",
        "countryCode": "SG",
        "country": "Singapore",
        "countryCodeISO3": "SGP",
        "freeformAddress": "80 Airport Boulevard, Singapore, 819653",
        "localName": "Singapore"
      },
      "position": {
        "lat": 1.362086,
        "lon": 103.990691
      },
      "viewport": {
        "topLeftPoint": {
          "lat": 1.38985,
          "lon": 103.97065
        },
        "btmRightPoint": {
          "lat": 1.31215,
          "lon": 104.04369
        }
      },
      "entryPoints": [
        {
          "type": "minor",
          "position": {
            "lat": 1.35535,
            "lon": 103.98693
          }
        },
        {
          "type": "main",
          "position": {
            "lat": 1.35634,
            "lon": 103.98855
          }
        },
        {
          "type": "main",
          "position": {
            "lat": 1.33932,
            "lon": 103.98316
          }
        },
        {
          "type": "main",
          "position": {
            "lat": 1.35526,
            "lon": 103.98705
          }
        },
        {
          "type": "minor",
          "position": {
            "lat": 1.35633,
            "lon": 103.98868
          }
        },
        {
          "type": "minor",
          "position": {
            "lat": 1.33566,
            "lon": 103.98219
          }
        },
        {
          "type": "minor",
          "position": {
            "lat": 1.36102,
            "lon": 103.99007
          }
        },
        {
          "type": "main",
          "position": {
            "lat": 1.36127,
            "lon": 103.98974
          }
        }
      ],
      "dataSources": {
        "geometry": {
          "id": "00005347-5000-3c00-0000-00005968577a"
        }
      }
    },
    {
      "type": "POI",
      "id": "0SpLias6mX8tUlMg_S3_9Q",
      "score": 2.1244060993,
      "info": "search:ta:784008000025760-AE",
      "poi": {
        "name": "Singapore Pavilion",
        "categorySet": [
          {
            "id": 7376002
          }
        ],
        "categories": [
          "building",
          "important tourist attraction"
        ],
        "classifications": [
          {
            "code": "IMPORTANT_TOURIST_ATTRACTION",
            "names": [
              {
                "nameLocale": "en-US",
                "name": "important tourist attraction"
              },
              {
                "nameLocale": "en-US",
                "name": "building"
              }
            ]
          }
        ]
      },
      "address": {
        "streetName": "Sidr Avenue",
        "municipalitySubdivision": "Madinat Al Maktoum",
        "municipality": "Dubai",
        "municipalitySecondarySubdivision": "Madinat Al Mataar",
        "countrySubdivision": "Dubai",
        "countrySubdivisionName": "Dubai",
        "countrySubdivisionCode": "DU",
        "postalCode": "",
        "countryCode": "AE",
        "country": "United Arab Emirates",
        "countryCodeISO3": "ARE",
        "freeformAddress": "201, Sidr Avenue, Madinat Al Maktoum, Dubai, Dubai",
        "localName": "Dubai"
      },
      "position": {
        "lat": 24.958929,
        "lon": 55.155858
      },
      "viewport": {
        "topLeftPoint": {
          "lat": 24.95983,
          "lon": 55.15487
        },
        "btmRightPoint": {
          "lat": 24.95803,
          "lon": 55.15685
        }
      },
      "entryPoints": [
        {
          "type": "main",
          "position": {
            "lat": 24.95879,
            "lon": 55.15562
          }
        }
      ],
      "dataSources": {
        "geometry": {
          "id": ""
        }
      }
    },
    {
      "type": "POI",
      "id": "S-tX6xLLjYlA1J1_SJr1Kw",
      "score": 2.1244060993,
      "info": "search:ta:702009000440630-SG",
      "poi": {
        "name": "iFly Singapore",
        "phone": "+65 6571 0000",
        "categorySet": [
          {
            "id": 7376002
          }
        ],
        "categories": [
          "building",
          "important tourist attraction"
        ],
        "classifications": [
          {
            "code": "IMPORTANT_TOURIST_ATTRACTION",
            "names": [
              {
                "nameLocale": "en-US",
                "name": "important tourist attraction"
              },
              {
                "nameLocale": "en-US",
                "name": "building"
              }
            ]
          }
        ],
        "url": "www.iflysingapore.com"
      },
      "address": {
        "streetName": "Siloso Beach Walk",
        "municipalitySubdivision": "Sentosa",
        "municipality": "Singapore",
        "municipalitySecondarySubdivision": "",
        "countrySubdivision": "",
        "countrySubdivisionName": "",
        "countrySubdivisionCode": "",
        "postalCode": "09",
        "countryCode": "SG",
        "country": "Singapore",
        "countryCodeISO3": "SGP",
        "freeformAddress": "43 Siloso Beach Walk, Singapore, 099010",
        "localName": "Singapore"
      },
      "position": {
        "lat": 1.252131,
        "lon": 103.817547
      },
      "viewport": {
        "topLeftPoint": {
          "lat": 1.25303,
          "lon": 103.81665
        },
        "btmRightPoint": {
          "lat": 1.25123,
          "lon": 103.81845
        }
      },
      "entryPoints": [
        {
          "type": "main",
          "position": {
            "lat": 1.25168,
            "lon": 103.81782
          }
        }
      ],
      "dataSources": {
        "geometry": {
          "id": ""
        }
      }
    },
    {
      "type": "POI",
      "id": "tVshOE7dpqM8cL52-v7PAA",
      "score": 2.1244060993,
      "info": "search:ta:702009000055979-SG",
      "poi": {
        "name": "Takashimaya Singapore",
        "categorySet": [
          {
            "id": 7376002
          }
        ],
        "categories": [
          "building",
          "important tourist attraction"
        ],
        "classifications": [
          {
            "code": "IMPORTANT_TOURIST_ATTRACTION",
            "names": [
              {
                "nameLocale": "en-US",
                "name": "important tourist attraction"
              },
              {
                "nameLocale": "en-US",
                "name": "building"
              }
            ]
          }
        ],
        "url": "www.takashimaya-sin.com"
      },
      "address": {
        "streetName": "Orchard Road",
        "municipalitySubdivision": "Orchard",
        "municipality": "Singapore",
        "municipalitySecondarySubdivision": "",
        "countrySubdivision": "",
        "countrySubdivisionName": "",
        "countrySubdivisionCode": "",
        "postalCode": "23",
        "countryCode": "SG",
        "country": "Singapore",
        "countryCodeISO3": "SGP",
        "freeformAddress": "391 Orchard Road, Singapore, 238874",
        "localName": "Singapore"
      },
      "position": {
        "lat": 1.302845,
        "lon": 103.834652
      },
      "viewport": {
        "topLeftPoint": {
          "lat": 1.30374,
          "lon": 103.83375
        },
        "btmRightPoint": {
          "lat": 1.30195,
          "lon": 103.83555
        }
      },
      "entryPoints": [
        {
          "type": "main",
          "position": {
            "lat": 1.30222,
            "lon": 103.83436
          }
        },
        {
          "type": "main",
          "position": {
            "lat": 1.30323,
            "lon": 103.83512
          }
        }
      ],
      "dataSources": {
        "geometry": {
          "id": ""
        }
      }
    },
    {
      "type": "POI",
      "id": "MumseuHJPb58uXkyreLPvQ",
      "score": 2.1244060993,
      "info": "search:ta:702007000022066-SG",
      "poi": {
        "name": "Fga Singapore",
        "categorySet": [
          {
            "id": 7376
          }
        ],
        "categories": [
          "important tourist attraction"
        ],
        "classifications": [
          {
            "code": "IMPORTANT_TOURIST_ATTRACTION",
            "names": [
              {
                "nameLocale": "en-US",
                "name": "important tourist attraction"
              }
            ]
          }
        ]
      },
      "address": {
        "streetName": "Playfair Road",
        "municipalitySubdivision": "Toa Payoh",
        "municipality": "Singapore",
        "municipalitySecondarySubdivision": "",
        "countrySubdivision": "",
        "countrySubdivisionName": "",
        "countrySubdivisionCode": "",
        "postalCode": "36",
        "countryCode": "SG",
        "country": "Singapore",
        "countryCodeISO3": "SGP",
        "freeformAddress": "Playfair Road, Singapore, 367988",
        "localName": "Singapore"
      },
      "position": {
        "lat": 1.33385,
        "lon": 103.88622
      },
      "viewport": {
        "topLeftPoint": {
          "lat": 1.33475,
          "lon": 103.88532
        },
        "btmRightPoint": {
          "lat": 1.33295,
          "lon": 103.88712
        }
      },
      "entryPoints": [
        {
          "type": "main",
          "position": {
            "lat": 1.33399,
            "lon": 103.88661
          }
        }
      ],
      "dataSources": {
        "geometry": {
          "id": ""
        }
      }
    },
    {
      "type": "POI",
      "id": "MgyzoAZeZNvPnq65m-ZRKw",
      "score": 2.1244060993,
      "info": "search:ta:702009000430033-SG",
      "poi": {
        "name": "Images of Singapore",
        "phone": "+65 6275 0388",
        "categorySet": [
          {
            "id": 7376002
          }
        ],
        "categories": [
          "building",
          "important tourist attraction"
        ],
        "classifications": [
          {
            "code": "IMPORTANT_TOURIST_ATTRACTION",
            "names": [
              {
                "nameLocale": "en-US",
                "name": "important tourist attraction"
              },
              {
                "nameLocale": "en-US",
                "name": "building"
              }
            ]
          }
        ],
        "url": "www.sentosa.com.sg"
      },
      "address": {
        "streetName": "Imbiah Road",
        "municipalitySubdivision": "Sentosa",
        "municipality": "Singapore",
        "municipalitySecondarySubdivision": "",
        "countrySubdivision": "",
        "countrySubdivisionName": "",
        "countrySubdivisionCode": "",
        "postalCode": "09",
        "countryCode": "SG",
        "country": "Singapore",
        "countryCodeISO3": "SGP",
        "freeformAddress": "40 Imbiah Road, Singapore, 099700",
        "localName": "Singapore"
      },
      "position": {
        "lat": 1.25416,
        "lon": 103.817687
      },
      "viewport": {
        "topLeftPoint": {
          "lat": 1.25506,
          "lon": 103.81679
        },
        "btmRightPoint": {
          "lat": 1.25326,
          "lon": 103.81859
        }
      },
      "entryPoints": [
        {
          "type": "main",
          "position": {
            "lat": 1.25472,
            "lon": 103.81745
          }
        }
      ],
      "dataSources": {
        "geometry": {
          "id": ""
        }
      }
    },
    {
      "type": "POI",
      "id": "4CICOM4hBwsHGXkoGYH1Hg",
      "score": 2.1244060993,
      "info": "search:ta:702007000027081-SG",
      "poi": {
        "name": "Parliament of Singapore",
        "categorySet": [
          {
            "id": 7376
          }
        ],
        "categories": [
          "important tourist attraction"
        ],
        "classifications": [
          {
            "code": "IMPORTANT_TOURIST_ATTRACTION",
            "names": [
              {
                "nameLocale": "en-US",
                "name": "important tourist attraction"
              }
            ]
          }
        ],
        "url": "www.parliament.gov.sg/"
      },
      "address": {
        "streetName": "Parliament Place",
        "municipalitySubdivision": "Downtown Core",
        "municipality": "Singapore",
        "municipalitySecondarySubdivision": "",
        "countrySubdivision": "",
        "countrySubdivisionName": "",
        "countrySubdivisionCode": "",
        "postalCode": "17",
        "countryCode": "SG",
        "country": "Singapore",
        "countryCodeISO3": "SGP",
        "freeformAddress": "Parliament Place, Singapore, 17",
        "localName": "Singapore"
      },
      "position": {
        "lat": 1.289363,
        "lon": 103.849854
      },
      "viewport": {
        "topLeftPoint": {
          "lat": 1.29026,
          "lon": 103.84895
        },
        "btmRightPoint": {
          "lat": 1.28846,
          "lon": 103.85075
        }
      },
      "entryPoints": [
        {
          "type": "main",
          "position": {
            "lat": 1.28996,
            "lon": 103.8503
          }
        }
      ],
      "dataSources": {
        "geometry": {
          "id": ""
        }
      }
    },
    {
      "type": "POI",
      "id": "PjxmX4Bl9L-og1DGv8lXkw",
      "score": 2.1037807465,
      "info": "search:ta:702007000021691-SG",
      "poi": {
        "name": "National University of Singapore",
        "categorySet": [
          {
            "id": 7376
          }
        ],
        "categories": [
          "important tourist attraction"
        ],
        "classifications": [
          {
            "code": "IMPORTANT_TOURIST_ATTRACTION",
            "names": [
              {
                "nameLocale": "en-US",
                "name": "important tourist attraction"
              }
            ]
          }
        ],
        "url": "www.nus.edu.sg/"
      },
      "address": {
        "streetName": "Lower Kent Ridge Road",
        "municipalitySubdivision": "Queenstown",
        "municipality": "Singapore",
        "municipalitySecondarySubdivision": "",
        "countrySubdivision": "",
        "countrySubdivisionName": "",
        "countrySubdivisionCode": "",
        "postalCode": "11",
        "countryCode": "SG",
        "country": "Singapore",
        "countryCodeISO3": "SGP",
        "freeformAddress": "21 Lower Kent Ridge Road, Singapore, 11",
        "localName": "Singapore"
      },
      "position": {
        "lat": 1.29711,
        "lon": 103.77762
      },
      "viewport": {
        "topLeftPoint": {
          "lat": 1.29801,
          "lon": 103.77672
        },
        "btmRightPoint": {
          "lat": 1.29621,
          "lon": 103.77852
        }
      },
      "entryPoints": [
        {
          "type": "main",
          "position": {
            "lat": 1.29754,
            "lon": 103.77784
          }
        }
      ],
      "dataSources": {
        "geometry": {
          "id": ""
        }
      }
    },
    {
      "type": "POI",
      "id": "vHC-ni7wizQ_YLj_6Atkkw",
      "score": 2.1037807465,
      "info": "search:ta:702009000056360-SG",
      "poi": {
        "name": "Singapore Art Museum",
        "phone": "+65 6332 3222",
        "categorySet": [
          {
            "id": 7376002
          }
        ],
        "categories": [
          "building",
          "important tourist attraction"
        ],
        "classifications": [
          {
            "code": "IMPORTANT_TOURIST_ATTRACTION",
            "names": [
              {
                "nameLocale": "en-US",
                "name": "important tourist attraction"
              },
              {
                "nameLocale": "en-US",
                "name": "building"
              }
            ]
          }
        ],
        "url": "www.singaporeartmuseum.sg"
      },
      "address": {
        "streetName": "Bras Basah Road",
        "municipalitySubdivision": "Museum",
        "municipality": "Singapore",
        "municipalitySecondarySubdivision": "",
        "countrySubdivision": "",
        "countrySubdivisionName": "",
        "countrySubdivisionCode": "",
        "postalCode": "18",
        "countryCode": "SG",
        "country": "Singapore",
        "countryCodeISO3": "SGP",
        "freeformAddress": "71 Bras Basah Road, Singapore, 189555",
        "localName": "Singapore"
      },
      "position": {
        "lat": 1.297199,
        "lon": 103.850911
      },
      "viewport": {
        "topLeftPoint": {
          "lat": 1.2981,
          "lon": 103.85001
        },
        "btmRightPoint": {
          "lat": 1.2963,
          "lon": 103.85181
        }
      },
      "entryPoints": [
        {
          "type": "main",
          "position": {
            "lat": 1.29718,
            "lon": 103.85045
          }
        }
      ],
      "dataSources": {
        "geometry": {
          "id": ""
        }
      }
    },
    {
      "type": "POI",
      "id": "91ik54nx2mG4xY0u9ZKL8w",
      "score": 2.1037807465,
      "info": "search:ta:702009000429610-SG",
      "poi": {
        "name": "Singapore Cable Car",
        "phone": "+65 6377 9662",
        "categorySet": [
          {
            "id": 7376002
          }
        ],
        "categories": [
          "building",
          "important tourist attraction"
        ],
        "classifications": [
          {
            "code": "IMPORTANT_TOURIST_ATTRACTION",
            "names": [
              {
                "nameLocale": "en-US",
                "name": "important tourist attraction"
              },
              {
                "nameLocale": "en-US",
                "name": "building"
              }
            ]
          }
        ],
        "url": "www.singaporecablecar.com.sg"
      },
      "address": {
        "streetName": "Mount Faber Road",
        "municipalitySubdivision": "Bukit Merah",
        "municipality": "Singapore",
        "municipalitySecondarySubdivision": "",
        "countrySubdivision": "",
        "countrySubdivisionName": "",
        "countrySubdivisionCode": "",
        "postalCode": "09",
        "countryCode": "SG",
        "country": "Singapore",
        "countryCodeISO3": "SGP",
        "freeformAddress": "109 Mount Faber Road, Singapore, 099203",
        "localName": "Singapore"
      },
      "position": {
        "lat": 1.271075,
        "lon": 103.819352
      },
      "viewport": {
        "topLeftPoint": {
          "lat": 1.27197,
          "lon": 103.81845
        },
        "btmRightPoint": {
          "lat": 1.27018,
          "lon": 103.82025
        }
      },
      "entryPoints": [
        {
          "type": "main",
          "position": {
            "lat": 1.27145,
            "lon": 103.81935
          }
        }
      ],
      "dataSources": {
        "geometry": {
          "id": ""
        }
      }
    },
    {
      "type": "POI",
      "id": "v9D8qB0hszpkUzRbf2qCEw",
      "score": 2.1037807465,
      "info": "search:ta:702002000163226-SG",
      "poi": {
        "name": "Singapore Philatelic Museum",
        "phone": "+65 6337 3888",
        "categorySet": [
          {
            "id": 7376002
          }
        ],
        "categories": [
          "building",
          "important tourist attraction"
        ],
        "classifications": [
          {
            "code": "IMPORTANT_TOURIST_ATTRACTION",
            "names": [
              {
                "nameLocale": "en-US",
                "name": "important tourist attraction"
              },
              {
                "nameLocale": "en-US",
                "name": "building"
              }
            ]
          }
        ],
        "url": "www.spm.org.sg"
      },
      "address": {
        "streetName": "Coleman Street",
        "municipalitySubdivision": "Museum",
        "municipality": "Singapore",
        "municipalitySecondarySubdivision": "",
        "countrySubdivision": "",
        "countrySubdivisionName": "",
        "countrySubdivisionCode": "",
        "postalCode": "17",
        "countryCode": "SG",
        "country": "Singapore",
        "countryCodeISO3": "SGP",
        "freeformAddress": "23B Coleman Street, Singapore, 179807",
        "localName": "Singapore"
      },
      "position": {
        "lat": 1.292904,
        "lon": 103.848784
      },
      "viewport": {
        "topLeftPoint": {
          "lat": 1.2938,
          "lon": 103.84788
        },
        "btmRightPoint": {
          "lat": 1.292,
          "lon": 103.84968
        }
      },
      "entryPoints": [
        {
          "type": "main",
          "position": {
            "lat": 1.29293,
            "lon": 103.84895
          }
        }
      ],
      "dataSources": {
        "geometry": {
          "id": ""
        }
      }
    },
    {
      "type": "POI",
      "id": "2dup0EPqJct9ClZoSBvDqg",
      "score": 2.1037807465,
      "info": "search:ta:702009000073004-SG",
      "poi": {
        "name": "Singapore Repertory Theatre",
        "phone": "+65 6733 8166",
        "categorySet": [
          {
            "id": 7376002
          }
        ],
        "categories": [
          "building",
          "important tourist attraction"
        ],
        "classifications": [
          {
            "code": "IMPORTANT_TOURIST_ATTRACTION",
            "names": [
              {
                "nameLocale": "en-US",
                "name": "important tourist attraction"
              },
              {
                "nameLocale": "en-US",
                "name": "building"
              }
            ]
          }
        ],
        "url": "www.srt.com.sg"
      },
      "address": {
        "streetName": "Merbau Road",
        "municipalitySubdivision": "Singapore River",
        "municipality": "Singapore",
        "municipalitySecondarySubdivision": "",
        "countrySubdivision": "",
        "countrySubdivisionName": "",
        "countrySubdivisionCode": "",
        "postalCode": "23",
        "countryCode": "SG",
        "country": "Singapore",
        "countryCodeISO3": "SGP",
        "freeformAddress": "20 Merbau Road, Singapore, 239035",
        "localName": "Singapore"
      },
      "position": {
        "lat": 1.291336,
        "lon": 103.841684
      },
      "viewport": {
        "topLeftPoint": {
          "lat": 1.29224,
          "lon": 103.84078
        },
        "btmRightPoint": {
          "lat": 1.29044,
          "lon": 103.84258
        }
      },
      "entryPoints": [
        {
          "type": "main",
          "position": {
            "lat": 1.29127,
            "lon": 103.84187
          }
        }
      ],
      "dataSources": {
        "geometry": {
          "id": ""
        }
      }
    },
    {
      "type": "POI",
      "id": "HGTe2eUiiHI38JviaMMp9w",
      "score": 2.1037807465,
      "info": "search:ta:702007000027202-SG",
      "poi": {
        "name": "Singapore Sports Hub",
        "categorySet": [
          {
            "id": 7376
          }
        ],
        "categories": [
          "important tourist attraction"
        ],
        "classifications": [
          {
            "code": "IMPORTANT_TOURIST_ATTRACTION",
            "names": [
              {
                "nameLocale": "en-US",
                "name": "important tourist attraction"
              }
            ]
          }
        ],
        "url": "www.sportshub.com.sg/"
      },
      "address": {
        "streetName": "Mountbatten Road",
        "municipalitySubdivision": "Kallang",
        "municipality": "Singapore",
        "municipalitySecondarySubdivision": "",
        "countrySubdivision": "",
        "countrySubdivisionName": "",
        "countrySubdivisionCode": "",
        "postalCode": "39",
        "countryCode": "SG",
        "country": "Singapore",
        "countryCodeISO3": "SGP",
        "freeformAddress": "Mountbatten Road, Singapore, 39",
        "localName": "Singapore"
      },
      "position": {
        "lat": 1.30493,
        "lon": 103.88263
      },
      "viewport": {
        "topLeftPoint": {
          "lat": 1.30583,
          "lon": 103.88173
        },
        "btmRightPoint": {
          "lat": 1.30403,
          "lon": 103.88353
        }
      },
      "entryPoints": [
        {
          "type": "main",
          "position": {
            "lat": 1.30523,
            "lon": 103.88296
          }
        }
      ],
      "dataSources": {
        "geometry": {
          "id": ""
        }
      }
    },
    {
      "type": "POI",
      "id": "88Whm94rr2ahh52aLI3EKw",
      "score": 2.1037807465,
      "info": "search:ta:702009000042941-SG",
      "poi": {
        "name": "National Museum of Singapore",
        "phone": "+65 6332 3659",
        "categorySet": [
          {
            "id": 7376002
          }
        ],
        "categories": [
          "building",
          "important tourist attraction"
        ],
        "classifications": [
          {
            "code": "IMPORTANT_TOURIST_ATTRACTION",
            "names": [
              {
                "nameLocale": "en-US",
                "name": "important tourist attraction"
              },
              {
                "nameLocale": "en-US",
                "name": "building"
              }
            ]
          }
        ],
        "url": "www.nationalmuseum.sg"
      },
      "address": {
        "streetName": "Stamford Road",
        "municipalitySubdivision": "Museum",
        "municipality": "Singapore",
        "municipalitySecondarySubdivision": "",
        "countrySubdivision": "",
        "countrySubdivisionName": "",
        "countrySubdivisionCode": "",
        "postalCode": "17",
        "countryCode": "SG",
        "country": "Singapore",
        "countryCodeISO3": "SGP",
        "freeformAddress": "93 Stamford Road, Singapore, 178897",
        "localName": "Singapore"
      },
      "position": {
        "lat": 1.296758,
        "lon": 103.848798
      },
      "viewport": {
        "topLeftPoint": {
          "lat": 1.29766,
          "lon": 103.8479
        },
        "btmRightPoint": {
          "lat": 1.29586,
          "lon": 103.8497
        }
      },
      "entryPoints": [
        {
          "type": "main",
          "position": {
            "lat": 1.29707,
            "lon": 103.84825
          }
        }
      ],
      "dataSources": {
        "geometry": {
          "id": ""
        }
      }
    },
    {
      "type": "POI",
      "id": "IzpE0_ccm9M_LuDe8i0KQw",
      "score": 2.1037807465,
      "info": "search:ta:702009000344962-SG",
      "poi": {
        "name": "Singapore River Cruise",
        "phone": "+65 6336 6111",
        "categorySet": [
          {
            "id": 7376002
          }
        ],
        "categories": [
          "building",
          "important tourist attraction"
        ],
        "classifications": [
          {
            "code": "IMPORTANT_TOURIST_ATTRACTION",
            "names": [
              {
                "nameLocale": "en-US",
                "name": "important tourist attraction"
              },
              {
                "nameLocale": "en-US",
                "name": "building"
              }
            ]
          }
        ],
        "url": "www.rivercruise.com.sg"
      },
      "address": {
        "streetName": "North Bridge Road",
        "municipalitySubdivision": "Downtown Core",
        "municipality": "Singapore",
        "municipalitySecondarySubdivision": "",
        "countrySubdivision": "",
        "countrySubdivisionName": "",
        "countrySubdivisionCode": "",
        "postalCode": "17",
        "countryCode": "SG",
        "country": "Singapore",
        "countryCodeISO3": "SGP",
        "freeformAddress": "1 North Bridge Road, Singapore, 179094",
        "localName": "Singapore"
      },
      "position": {
        "lat": 1.289855,
        "lon": 103.849136
      },
      "viewport": {
        "topLeftPoint": {
          "lat": 1.29075,
          "lon": 103.84824
        },
        "btmRightPoint": {
          "lat": 1.28896,
          "lon": 103.85004
        }
      },
      "entryPoints": [
        {
          "type": "main",
          "position": {
            "lat": 1.28952,
            "lon": 103.84958
          }
        }
      ],
      "dataSources": {
        "geometry": {
          "id": ""
        }
      }
    },
    {
      "type": "POI",
      "id": "Gs8GxavyMz_abXJMiRMdIg",
      "score": 2.1037807465,
      "info": "search:ta:702007000027074-SG",
      "poi": {
        "name": "Singapore Momentum Sculpture",
        "categorySet": [
          {
            "id": 7376
          }
        ],
        "categories": [
          "important tourist attraction"
        ],
        "classifications": [
          {
            "code": "IMPORTANT_TOURIST_ATTRACTION",
            "names": [
              {
                "nameLocale": "en-US",
                "name": "important tourist attraction"
              }
            ]
          }
        ]
      },
      "address": {
        "streetName": "Finlayson Green",
        "municipalitySubdivision": "Downtown Core",
        "municipality": "Singapore",
        "municipalitySecondarySubdivision": "",
        "countrySubdivision": "",
        "countrySubdivisionName": "",
        "countrySubdivisionCode": "",
        "postalCode": "04",
        "countryCode": "SG",
        "country": "Singapore",
        "countryCodeISO3": "SGP",
        "freeformAddress": "2 Finlayson Green, Singapore, 049247",
        "localName": "Singapore"
      },
      "position": {
        "lat": 1.28208,
        "lon": 103.85152
      },
      "viewport": {
        "topLeftPoint": {
          "lat": 1.28298,
          "lon": 103.85062
        },
        "btmRightPoint": {
          "lat": 1.28118,
          "lon": 103.85242
        }
      },
      "entryPoints": [
        {
          "type": "main",
          "position": {
            "lat": 1.28234,
            "lon": 103.8517
          }
        }
      ],
      "dataSources": {
        "geometry": {
          "id": ""
        }
      }
    },
    {
      "type": "POI",
      "id": "SuTpD0kPP8D3Ev963tFH-Q",
      "score": 2.1037807465,
      "info": "search:ta:702009000042639-SG",
      "poi": {
        "name": "DFS Galleria Singapore",
        "phone": "+65 6229 8100",
        "categorySet": [
          {
            "id": 7376002
          }
        ],
        "categories": [
          "building",
          "important tourist attraction"
        ],
        "classifications": [
          {
            "code": "IMPORTANT_TOURIST_ATTRACTION",
            "names": [
              {
                "nameLocale": "en-US",
                "name": "important tourist attraction"
              },
              {
                "nameLocale": "en-US",
                "name": "building"
              }
            ]
          }
        ],
        "url": "www.dfsgalleria.com"
      },
      "address": {
        "streetName": "Scotts Road",
        "municipalitySubdivision": "Orchard",
        "municipality": "Singapore",
        "municipalitySecondarySubdivision": "",
        "countrySubdivision": "",
        "countrySubdivisionName": "",
        "countrySubdivisionCode": "",
        "postalCode": "22",
        "countryCode": "SG",
        "country": "Singapore",
        "countryCodeISO3": "SGP",
        "freeformAddress": "25 Scotts Road, Singapore, 228220",
        "localName": "Singapore"
      },
      "position": {
        "lat": 1.307054,
        "lon": 103.83239
      },
      "viewport": {
        "topLeftPoint": {
          "lat": 1.30795,
          "lon": 103.83149
        },
        "btmRightPoint": {
          "lat": 1.30615,
          "lon": 103.83329
        }
      },
      "entryPoints": [
        {
          "type": "main",
          "position": {
            "lat": 1.307,
            "lon": 103.83261
          }
        },
        {
          "type": "main",
          "position": {
            "lat": 1.30699,
            "lon": 103.83261
          }
        }
      ],
      "dataSources": {
        "geometry": {
          "id": ""
        }
      }
    },
    {
      "type": "POI",
      "id": "qdPY-FYtfdDI64t5zaWYsA",
      "score": 2.1037807465,
      "info": "search:ta:702009000435067-SG",
      "poi": {
        "name": "Singapore City Gallery",
        "phone": "+65 6321 8321",
        "categorySet": [
          {
            "id": 7376002
          }
        ],
        "categories": [
          "building",
          "important tourist attraction"
        ],
        "classifications": [
          {
            "code": "IMPORTANT_TOURIST_ATTRACTION",
            "names": [
              {
                "nameLocale": "en-US",
                "name": "important tourist attraction"
              },
              {
                "nameLocale": "en-US",
                "name": "building"
              }
            ]
          }
        ],
        "url": "www.singaporecitygallery.sg"
      },
      "address": {
        "streetName": "Maxwell Road",
        "municipalitySubdivision": "Downtown Core",
        "municipality": "Singapore",
        "municipalitySecondarySubdivision": "",
        "countrySubdivision": "",
        "countrySubdivisionName": "",
        "countrySubdivisionCode": "",
        "postalCode": "06",
        "countryCode": "SG",
        "country": "Singapore",
        "countryCodeISO3": "SGP",
        "freeformAddress": "45 Maxwell Road, Singapore, 069118",
        "localName": "Singapore"
      },
      "position": {
        "lat": 1.279564,
        "lon": 103.845383
      },
      "viewport": {
        "topLeftPoint": {
          "lat": 1.28046,
          "lon": 103.84448
        },
        "btmRightPoint": {
          "lat": 1.27866,
          "lon": 103.84628
        }
      },
      "entryPoints": [
        {
          "type": "main",
          "position": {
            "lat": 1.27927,
            "lon": 103.84518
          }
        }
      ],
      "dataSources": {
        "geometry": {
          "id": ""
        }
      }
    },
    {
      "type": "POI",
      "id": "D2eTYsEj7Z0czWGs8-cyYQ",
      "score": 2.1037807465,
      "info": "search:ta:702009000031836-SG",
      "poi": {
        "name": "Singapore Science Centre",
        "phone": "+65 6425 2500",
        "categorySet": [
          {
            "id": 7376002
          }
        ],
        "categories": [
          "building",
          "important tourist attraction"
        ],
        "classifications": [
          {
            "code": "IMPORTANT_TOURIST_ATTRACTION",
            "names": [
              {
                "nameLocale": "en-US",
                "name": "important tourist attraction"
              },
              {
                "nameLocale": "en-US",
                "name": "building"
              }
            ]
          }
        ],
        "url": "www.science.edu.sg"
      },
      "address": {
        "streetName": "Science Centre Road",
        "municipalitySubdivision": "Jurong East",
        "municipality": "Singapore",
        "municipalitySecondarySubdivision": "",
        "countrySubdivision": "",
        "countrySubdivisionName": "",
        "countrySubdivisionCode": "",
        "postalCode": "60",
        "countryCode": "SG",
        "country": "Singapore",
        "countryCodeISO3": "SGP",
        "freeformAddress": "15 Science Centre Road, Singapore, 609081",
        "localName": "Singapore"
      },
      "position": {
        "lat": 1.333403,
        "lon": 103.736532
      },
      "viewport": {
        "topLeftPoint": {
          "lat": 1.3343,
          "lon": 103.73563
        },
        "btmRightPoint": {
          "lat": 1.3325,
          "lon": 103.73743
        }
      },
      "entryPoints": [
        {
          "type": "main",
          "position": {
            "lat": 1.333,
            "lon": 103.73696
          }
        }
      ],
      "dataSources": {
        "geometry": {
          "id": ""
        }
      }
    },
    {
      "type": "POI",
      "id": "KlO4ksn07pf-dEm86YIaNw",
      "score": 2.1037807465,
      "info": "search:ta:702009000083857-SG",
      "poi": {
        "name": "Singapore Turf Club",
        "phone": "+65 6879 1000",
        "categorySet": [
          {
            "id": 7376002
          }
        ],
        "categories": [
          "building",
          "important tourist attraction"
        ],
        "classifications": [
          {
            "code": "IMPORTANT_TOURIST_ATTRACTION",
            "names": [
              {
                "nameLocale": "en-US",
                "name": "important tourist attraction"
              },
              {
                "nameLocale": "en-US",
                "name": "building"
              }
            ]
          }
        ],
        "url": "www.turfclub.com.sg"
      },
      "address": {
        "streetName": "Turf Club Avenue",
        "municipalitySubdivision": "Sungei Kadut",
        "municipality": "Singapore",
        "municipalitySecondarySubdivision": "",
        "countrySubdivision": "",
        "countrySubdivisionName": "",
        "countrySubdivisionCode": "",
        "postalCode": "73",
        "countryCode": "SG",
        "country": "Singapore",
        "countryCodeISO3": "SGP",
        "freeformAddress": "1 Turf Club Avenue, Singapore, 738078",
        "localName": "Singapore"
      },
      "position": {
        "lat": 1.422656,
        "lon": 103.762456
      },
      "viewport": {
        "topLeftPoint": {
          "lat": 1.42466,
          "lon": 103.76045
        },
        "btmRightPoint": {
          "lat": 1.42065,
          "lon": 103.76446
        }
      },
      "entryPoints": [
        {
          "type": "minor",
          "position": {
            "lat": 1.42124,
            "lon": 103.76104
          }
        },
        {
          "type": "main",
          "position": {
            "lat": 1.42131,
            "lon": 103.76101
          }
        }
      ],
      "dataSources": {
        "geometry": {
          "id": ""
        }
      }
    },
    {
      "type": "POI",
      "id": "gqhBFzcVK_30jSye5zbM7A",
      "score": 2.1037807465,
      "info": "search:ta:702007000025813-SG",
      "poi": {
        "name": "The Singapore Buddhist Lodge",
        "categorySet": [
          {
            "id": 7376
          }
        ],
        "categories": [
          "important tourist attraction"
        ],
        "classifications": [
          {
            "code": "IMPORTANT_TOURIST_ATTRACTION",
            "names": [
              {
                "nameLocale": "en-US",
                "name": "important tourist attraction"
              }
            ]
          }
        ],
        "url": "www.sbl.org.sg/chn/index.aspx"
      },
      "address": {
        "streetName": "Kim Yam Road",
        "municipalitySubdivision": "River Valley",
        "municipality": "Singapore",
        "municipalitySecondarySubdivision": "",
        "countrySubdivision": "",
        "countrySubdivisionName": "",
        "countrySubdivisionCode": "",
        "postalCode": "23",
        "countryCode": "SG",
        "country": "Singapore",
        "countryCodeISO3": "SGP",
        "freeformAddress": "17 Kim Yam Road, Singapore, 239329",
        "localName": "Singapore"
      },
      "position": {
        "lat": 1.29448,
        "lon": 103.83896
      },
      "viewport": {
        "topLeftPoint": {
          "lat": 1.29538,
          "lon": 103.83806
        },
        "btmRightPoint": {
          "lat": 1.29358,
          "lon": 103.83986
        }
      },
      "entryPoints": [
        {
          "type": "main",
          "position": {
            "lat": 1.29449,
            "lon": 103.8387
          }
        }
      ],
      "dataSources": {
        "geometry": {
          "id": ""
        }
      }
    },
    {
      "type": "POI",
      "id": "0ahj29Fdbb5UamlxbH-4Qg",
      "score": 2.1037807465,
      "info": "search:ta:702007000025677-SG",
      "poi": {
        "name": "The American Club Singapore",
        "categorySet": [
          {
            "id": 7376
          }
        ],
        "categories": [
          "important tourist attraction"
        ],
        "classifications": [
          {
            "code": "IMPORTANT_TOURIST_ATTRACTION",
            "names": [
              {
                "nameLocale": "en-US",
                "name": "important tourist attraction"
              }
            ]
          }
        ],
        "url": "www.amclub.org.sg"
      },
      "address": {
        "streetName": "Claymore Hill",
        "municipalitySubdivision": "Newton",
        "municipality": "Singapore",
        "municipalitySecondarySubdivision": "",
        "countrySubdivision": "",
        "countrySubdivisionName": "",
        "countrySubdivisionCode": "",
        "postalCode": "22",
        "countryCode": "SG",
        "country": "Singapore",
        "countryCodeISO3": "SGP",
        "freeformAddress": "10 Claymore Hill, Singapore, 229573",
        "localName": "Singapore"
      },
      "position": {
        "lat": 1.308262,
        "lon": 103.832389
      },
      "viewport": {
        "topLeftPoint": {
          "lat": 1.30916,
          "lon": 103.83149
        },
        "btmRightPoint": {
          "lat": 1.30736,
          "lon": 103.83329
        }
      },
      "entryPoints": [
        {
          "type": "main",
          "position": {
            "lat": 1.30786,
            "lon": 103.83196
          }
        }
      ],
      "dataSources": {
        "geometry": {
          "id": ""
        }
      }
    },
    {
      "type": "POI",
      "id": "WktuiQmH4KcFpn2RLDmN8w",
      "score": 2.1037807465,
      "info": "search:ta:702009000454644-SG",
      "poi": {
        "name": "Singapore Crocodile Farm",
        "categorySet": [
          {
            "id": 7376004
          }
        ],
        "categories": [
          "important tourist attraction",
          "natural tourist attraction"
        ],
        "classifications": [
          {
            "code": "IMPORTANT_TOURIST_ATTRACTION",
            "names": [
              {
                "nameLocale": "en-US",
                "name": "natural tourist attraction"
              },
              {
                "nameLocale": "en-US",
                "name": "important tourist attraction"
              }
            ]
          }
        ]
      },
      "address": {
        "streetName": "Upper Serangoon Road",
        "municipalitySubdivision": "Hougang",
        "municipality": "Singapore",
        "municipalitySecondarySubdivision": "",
        "countrySubdivision": "",
        "countrySubdivisionName": "",
        "countrySubdivisionCode": "",
        "postalCode": "53",
        "countryCode": "SG",
        "country": "Singapore",
        "countryCodeISO3": "SGP",
        "freeformAddress": "790 Upper Serangoon Road, Singapore, 534063",
        "localName": "Singapore"
      },
      "position": {
        "lat": 1.354652,
        "lon": 103.879627
      },
      "viewport": {
        "topLeftPoint": {
          "lat": 1.35555,
          "lon": 103.87873
        },
        "btmRightPoint": {
          "lat": 1.35375,
          "lon": 103.88053
        }
      },
      "entryPoints": [
        {
          "type": "main",
          "position": {
            "lat": 1.35492,
            "lon": 103.8794
          }
        }
      ],
      "dataSources": {
        "geometry": {
          "id": ""
        }
      }
    },
    {
      "type": "POI",
      "id": "19U8FAtkDvcXSYBALGDJew",
      "score": 2.1037807465,
      "info": "search:ta:702009000428328-SG",
      "poi": {
        "name": "Universal Studios Singapore",
        "phone": "+65 6577 8888",
        "categorySet": [
          {
            "id": 7376002
          }
        ],
        "categories": [
          "building",
          "important tourist attraction"
        ],
        "classifications": [
          {
            "code": "IMPORTANT_TOURIST_ATTRACTION",
            "names": [
              {
                "nameLocale": "en-US",
                "name": "important tourist attraction"
              },
              {
                "nameLocale": "en-US",
                "name": "building"
              }
            ]
          }
        ],
        "url": "www.rwsentosa.com"
      },
      "address": {
        "streetName": "Sentosa Gateway",
        "municipalitySubdivision": "Sentosa",
        "municipality": "Singapore",
        "municipalitySecondarySubdivision": "",
        "countrySubdivision": "",
        "countrySubdivisionName": "",
        "countrySubdivisionCode": "",
        "postalCode": "09",
        "countryCode": "SG",
        "country": "Singapore",
        "countryCodeISO3": "SGP",
        "freeformAddress": "30 Sentosa Gateway, Singapore, 098140",
        "localName": "Singapore"
      },
      "position": {
        "lat": 1.254619,
        "lon": 103.823465
      },
      "viewport": {
        "topLeftPoint": {
          "lat": 1.26049,
          "lon": 103.81759
        },
        "btmRightPoint": {
          "lat": 1.24874,
          "lon": 103.82934
        }
      },
      "entryPoints": [
        {
          "type": "main",
          "position": {
            "lat": 1.25807,
            "lon": 103.81871
          }
        }
      ],
      "dataSources": {
        "geometry": {
          "id": ""
        }
      }
    },
    {
      "type": "POI",
      "id": "eDqtdOP5O-E1qm_hUoHP1Q",
      "score": 2.1037807465,
      "info": "search:ta:702009000435187-SG",
      "poi": {
        "name": "Singapore Chinese Orchestra",
        "phone": "+65 6557 4030",
        "categorySet": [
          {
            "id": 7376002
          }
        ],
        "categories": [
          "building",
          "important tourist attraction"
        ],
        "classifications": [
          {
            "code": "IMPORTANT_TOURIST_ATTRACTION",
            "names": [
              {
                "nameLocale": "en-US",
                "name": "important tourist attraction"
              },
              {
                "nameLocale": "en-US",
                "name": "building"
              }
            ]
          }
        ],
        "url": "www.sco.com.sg"
      },
      "address": {
        "streetName": "Shenton Way",
        "municipalitySubdivision": "Downtown Core",
        "municipality": "Singapore",
        "municipalitySecondarySubdivision": "",
        "countrySubdivision": "",
        "countrySubdivisionName": "",
        "countrySubdivisionCode": "",
        "postalCode": "06",
        "countryCode": "SG",
        "country": "Singapore",
        "countryCodeISO3": "SGP",
        "freeformAddress": "7 Shenton Way, Singapore, 068809",
        "localName": "Singapore"
      },
      "position": {
        "lat": 1.276286,
        "lon": 103.84893
      },
      "viewport": {
        "topLeftPoint": {
          "lat": 1.27723,
          "lon": 103.84798
        },
        "btmRightPoint": {
          "lat": 1.27534,
          "lon": 103.84988
        }
      },
      "entryPoints": [
        {
          "type": "main",
          "position": {
            "lat": 1.27723,
            "lon": 103.84885
          }
        }
      ],
      "dataSources": {
        "geometry": {
          "id": ""
        }
      }
    },
    {
      "type": "POI",
      "id": "iuNGdPO2vq2X9eJHIlJv4w",
      "score": 2.1037807465,
      "info": "search:ta:702009000453355-SG",
      "poi": {
        "name": "Singapore Symphony Orchestra",
        "phone": "+65 6602 4200",
        "categorySet": [
          {
            "id": 7376002
          }
        ],
        "categories": [
          "building",
          "important tourist attraction"
        ],
        "classifications": [
          {
            "code": "IMPORTANT_TOURIST_ATTRACTION",
            "names": [
              {
                "nameLocale": "en-US",
                "name": "important tourist attraction"
              },
              {
                "nameLocale": "en-US",
                "name": "building"
              }
            ]
          }
        ],
        "url": "www.sso.org.sg"
      },
      "address": {
        "streetName": "Battery Road",
        "municipalitySubdivision": "Downtown Core",
        "municipality": "Singapore",
        "municipalitySecondarySubdivision": "",
        "countrySubdivision": "",
        "countrySubdivisionName": "",
        "countrySubdivisionCode": "",
        "postalCode": "04",
        "countryCode": "SG",
        "country": "Singapore",
        "countryCodeISO3": "SGP",
        "freeformAddress": "4 Battery Road, Singapore, 04",
        "localName": "Singapore"
      },
      "position": {
        "lat": 1.288497,
        "lon": 103.851621
      },
      "viewport": {
        "topLeftPoint": {
          "lat": 1.2894,
          "lon": 103.85072
        },
        "btmRightPoint": {
          "lat": 1.2876,
          "lon": 103.85252
        }
      },
      "entryPoints": [
        {
          "type": "main",
          "position": {
            "lat": 1.28877,
            "lon": 103.85187
          }
        }
      ],
      "dataSources": {
        "geometry": {
          "id": ""
        }
      }
    },
    {
      "type": "POI",
      "id": "15bHARnw-jTkBAHJ_TEMVw",
      "score": 2.0835521221,
      "info": "search:ta:702009000439592-SG",
      "poi": {
        "name": "Singapore Coins \u0026 Notes Museum",
        "phone": "+65 6222 2486",
        "categorySet": [
          {
            "id": 7376002
          }
        ],
        "categories": [
          "building",
          "important tourist attraction"
        ],
        "classifications": [
          {
            "code": "IMPORTANT_TOURIST_ATTRACTION",
            "names": [
              {
                "nameLocale": "en-US",
                "name": "important tourist attraction"
              },
              {
                "nameLocale": "en-US",
                "name": "building"
              }
            ]
          }
        ],
        "url": "www.singaporecoinsandnotesmuseum.com"
      },
      "address": {
        "streetName": "Pagoda Street",
        "municipalitySubdivision": "Outram",
        "municipality": "Singapore",
        "municipalitySecondarySubdivision": "",
        "countrySubdivision": "",
        "countrySubdivisionName": "",
        "countrySubdivisionCode": "",
        "postalCode": "05",
        "countryCode": "SG",
        "country": "Singapore",
        "countryCodeISO3": "SGP",
        "freeformAddress": "40 Pagoda Street, Singapore, 059199",
        "localName": "Singapore"
      },
      "position": {
        "lat": 1.283495,
        "lon": 103.844496
      },
      "viewport": {
        "topLeftPoint": {
          "lat": 1.28439,
          "lon": 103.8436
        },
        "btmRightPoint": {
          "lat": 1.2826,
          "lon": 103.8454
        }
      },
      "entryPoints": [
        {
          "type": "main",
          "position": {
            "lat": 1.28337,
            "lon": 103.84438
          }
        }
      ],
      "dataSources": {
        "geometry": {
          "id": ""
        }
      }
    },
    {
      "type": "POI",
      "id": "HWVecYESCuBhY5kmxrl6Pg",
      "score": 2.0835521221,
      "info": "search:ta:702009000083585-SG",
      "poi": {
        "name": "Singapore Tyler Print Institute",
        "phone": "+65 6336 3663",
        "categorySet": [
          {
            "id": 7376002
          }
        ],
        "categories": [
          "building",
          "important tourist attraction"
        ],
        "classifications": [
          {
            "code": "IMPORTANT_TOURIST_ATTRACTION",
            "names": [
              {
                "nameLocale": "en-US",
                "name": "important tourist attraction"
              },
              {
                "nameLocale": "en-US",
                "name": "building"
              }
            ]
          }
        ],
        "url": "www.stpi.com.sg"
      },
      "address": {
        "streetName": "Robertson Quay",
        "municipalitySubdivision": "Singapore River",
        "municipality": "Singapore",
        "municipalitySecondarySubdivision": "",
        "countrySubdivision": "",
        "countrySubdivisionName": "",
        "countrySubdivisionCode": "",
        "postalCode": "23",
        "countryCode": "SG",
        "country": "Singapore",
        "countryCodeISO3": "SGP",
        "freeformAddress": "41 Robertson Quay, Singapore, 238236",
        "localName": "Singapore"
      },
      "position": {
        "lat": 1.290938,
        "lon": 103.840283
      },
      "viewport": {
        "topLeftPoint": {
          "lat": 1.29184,
          "lon": 103.83938
        },
        "btmRightPoint": {
          "lat": 1.29004,
          "lon": 103.84118
        }
      },
      "entryPoints": [
        {
          "type": "main",
          "position": {
            "lat": 1.29074,
            "lon": 103.84036
          }
        }
      ],
      "dataSources": {
        "geometry": {
          "id": ""
        }
      }
    },
    {
      "type": "POI",
      "id": "JO7YsHErJKyaTqaFh381VQ",
      "score": 2.0835521221,
      "info": "search:ta:702009002617703-SG",
      "poi": {
        "name": "The Shopping Gallery Hilton Singapore",
        "phone": "+65 6737 2233",
        "categorySet": [
          {
            "id": 7376002
          }
        ],
        "categories": [
          "building",
          "important tourist attraction"
        ],
        "classifications": [
          {
            "code": "IMPORTANT_TOURIST_ATTRACTION",
            "names": [
              {
                "nameLocale": "en-US",
                "name": "important tourist attraction"
              },
              {
                "nameLocale": "en-US",
                "name": "building"
              }
            ]
          }
        ],
        "url": "www.hiltonshoppinggallery.com"
      },
      "address": {
        "streetName": "Orchard Road",
        "municipalitySubdivision": "Orchard",
        "municipality": "Singapore",
        "municipalitySecondarySubdivision": "",
        "countrySubdivision": "",
        "countrySubdivisionName": "",
        "countrySubdivisionCode": "",
        "postalCode": "23",
        "countryCode": "SG",
        "country": "Singapore",
        "countryCodeISO3": "SGP",
        "freeformAddress": "581 Orchard Road, Singapore, 238883",
        "localName": "Singapore"
      },
      "position": {
        "lat": 1.305802,
        "lon": 103.829161
      },
      "viewport": {
        "topLeftPoint": {
          "lat": 1.3067,
          "lon": 103.82826
        },
        "btmRightPoint": {
          "lat": 1.3049,
          "lon": 103.83006
        }
      },
      "entryPoints": [
        {
          "type": "main",
          "position": {
            "lat": 1.30599,
            "lon": 103.82953
          }
        }
      ],
      "dataSources": {
        "geometry": {
          "id": ""
        }
      }
    },
    {
      "type": "POI",
      "id": "Rp12XhNDGvUKOajif0GZNA",
      "score": 2.0835521221,
      "info": "search:ta:702007000026123-SG",
      "poi": {
        "name": "Singapore Hong San See",
        "categorySet": [
          {
            "id": 7376
          }
        ],
        "categories": [
          "important tourist attraction"
        ],
        "classifications": [
          {
            "code": "IMPORTANT_TOURIST_ATTRACTION",
            "names": [
              {
                "nameLocale": "en-US",
                "name": "important tourist attraction"
              }
            ]
          }
        ]
      },
      "address": {
        "streetName": "Mohamed Sultan Road",
        "municipalitySubdivision": "River Valley",
        "municipality": "Singapore",
        "municipalitySecondarySubdivision": "",
        "countrySubdivision": "",
        "countrySubdivisionName": "",
        "countrySubdivisionCode": "",
        "postalCode": "23",
        "countryCode": "SG",
        "country": "Singapore",
        "countryCodeISO3": "SGP",
        "freeformAddress": "31 Mohamed Sultan Road, Singapore, 238975",
        "localName": "Singapore"
      },
      "position": {
        "lat": 1.29277,
        "lon": 103.841118
      },
      "viewport": {
        "topLeftPoint": {
          "lat": 1.29367,
          "lon": 103.84022
        },
        "btmRightPoint": {
          "lat": 1.29187,
          "lon": 103.84202
        }
      },
      "entryPoints": [
        {
          "type": "main",
          "position": {
            "lat": 1.29272,
            "lon": 103.84119
          }
        }
      ],
      "dataSources": {
        "geometry": {
          "id": ""
        }
      }
    },
    {
      "type": "POI",
      "id": "RXEU6mt7v2d2kpA4BJiM8Q",
      "score": 2.0835521221,
      "info": "search:ta:702009000038507-SG",
      "poi": {
        "name": "Pioneers of Singapore Surrender Chamber",
        "categorySet": [
          {
            "id": 7376003
          }
        ],
        "categories": [
          "important tourist attraction",
          "monument"
        ],
        "classifications": [
          {
            "code": "IMPORTANT_TOURIST_ATTRACTION",
            "names": [
              {
                "nameLocale": "en-US",
                "name": "important tourist attraction"
              },
              {
                "nameLocale": "en-US",
                "name": "monument"
              }
            ]
          }
        ]
      },
      "address": {
        "streetName": "Siloso Road",
        "municipalitySubdivision": "Sentosa",
        "municipality": "Singapore",
        "municipalitySecondarySubdivision": "",
        "countrySubdivision": "",
        "countrySubdivisionName": "",
        "countrySubdivisionCode": "",
        "postalCode": "09",
        "countryCode": "SG",
        "country": "Singapore",
        "countryCodeISO3": "SGP",
        "freeformAddress": "Siloso Road, Singapore, 098969",
        "localName": "Singapore"
      },
      "position": {
        "lat": 1.259587,
        "lon": 103.809765
      },
      "viewport": {
        "topLeftPoint": {
          "lat": 1.26049,
          "lon": 103.80887
        },
        "btmRightPoint": {
          "lat": 1.25869,
          "lon": 103.81066
        }
      },
      "entryPoints": [
        {
          "type": "main",
          "position": {
            "lat": 1.25952,
            "lon": 103.80969
          }
        }
      ],
      "dataSources": {
        "geometry": {
          "id": ""
        }
      }
    },
    {
      "type": "POI",
      "id": "Ys2khTxy3eEcIdLoLTxUKg",
      "score": 2.0835521221,
      "info": "search:ta:702007000037346-SG",
      "poi": {
        "name": "Kingdom Life Church Singapore",
        "categorySet": [
          {
            "id": 7376002
          }
        ],
        "categories": [
          "building",
          "important tourist attraction"
        ],
        "classifications": [
          {
            "code": "IMPORTANT_TOURIST_ATTRACTION",
            "names": [
              {
                "nameLocale": "en-US",
                "name": "important tourist attraction"
              },
              {
                "nameLocale": "en-US",
                "name": "building"
              }
            ]
          }
        ],
        "url": "www.kingdomlifechurch.sg"
      },
      "address": {
        "municipalitySubdivision": "Novena",
        "municipality": "Singapore",
        "municipalitySecondarySubdivision": "",
        "countrySubdivision": "",
        "countrySubdivisionName": "",
        "countrySubdivisionCode": "",
        "postalCode": "30",
        "countryCode": "SG",
        "country": "Singapore",
        "countryCodeISO3": "SGP",
        "freeformAddress": "Singapore, 30",
        "localName": "Singapore"
      },
      "position": {
        "lat": 1.320064,
        "lon": 103.844584
      },
      "viewport": {
        "topLeftPoint": {
          "lat": 1.32096,
          "lon": 103.84368
        },
        "btmRightPoint": {
          "lat": 1.31916,
          "lon": 103.84548
        }
      },
      "entryPoints": [
        {
          "type": "main",
          "position": {
            "lat": 1.31996,
            "lon": 103.84442
          }
        }
      ],
      "dataSources": {
        "geometry": {
          "id": ""
        }
      }
    },
    {
      "type": "POI",
      "id": "gZxVgMRoDSGQMfGRb1EZMg",
      "score": 2.0835521221,
      "info": "search:ta:702009000082862-SG",
      "poi": {
        "name": "F1 Singapore Grand Prix",
        "categorySet": [
          {
            "id": 7376002
          }
        ],
        "categories": [
          "building",
          "important tourist attraction"
        ],
        "classifications": [
          {
            "code": "IMPORTANT_TOURIST_ATTRACTION",
            "names": [
              {
                "nameLocale": "en-US",
                "name": "important tourist attraction"
              },
              {
                "nameLocale": "en-US",
                "name": "building"
              }
            ]
          }
        ],
        "url": "www.singaporegp.sg"
      },
      "address": {
        "streetName": "Raffles Avenue",
        "municipalitySubdivision": "Downtown Core",
        "municipality": "Singapore",
        "municipalitySecondarySubdivision": "",
        "countrySubdivision": "",
        "countrySubdivisionName": "",
        "countrySubdivisionCode": "",
        "postalCode": "03",
        "countryCode": "SG",
        "country": "Singapore",
        "countryCodeISO3": "SGP",
        "freeformAddress": "Raffles Avenue, Singapore, 039805",
        "localName": "Singapore"
      },
      "position": {
        "lat": 1.289362,
        "lon": 103.858966
      },
      "viewport": {
        "topLeftPoint": {
          "lat": 1.29026,
          "lon": 103.85807
        },
        "btmRightPoint": {
          "lat": 1.28846,
          "lon": 103.85987
        }
      },
      "entryPoints": [
        {
          "type": "main",
          "position": {
            "lat": 1.28965,
            "lon": 103.85901
          }
        }
      ],
      "dataSources": {
        "geometry": {
          "id": ""
        }
      }
    },
    {
      "type": "POI",
      "id": "jz3ZrQ6oh_UBdmw5NarDvg",
      "score": 2.0835521221,
      "info": "search:ta:702007000025784-SG",
      "poi": {
        "name": "Singapore Chinese Cultural Centre",
        "categorySet": [
          {
            "id": 7376
          }
        ],
        "categories": [
          "important tourist attraction"
        ],
        "classifications": [
          {
            "code": "IMPORTANT_TOURIST_ATTRACTION",
            "names": [
              {
                "nameLocale": "en-US",
                "name": "important tourist attraction"
              }
            ]
          }
        ],
        "url": "www.singaporeccc.org.sg"
      },
      "address": {
        "streetName": "Straits Boulevard",
        "municipalitySubdivision": "Downtown Core",
        "municipality": "Singapore",
        "municipalitySecondarySubdivision": "",
        "countrySubdivision": "",
        "countrySubdivisionName": "",
        "countrySubdivisionCode": "",
        "postalCode": "01",
        "countryCode": "SG",
        "country": "Singapore",
        "countryCodeISO3": "SGP",
        "freeformAddress": "1 Straits Boulevard, Singapore, 018906",
        "localName": "Singapore"
      },
      "position": {
        "lat": 1.275822,
        "lon": 103.849521
      },
      "viewport": {
        "topLeftPoint": {
          "lat": 1.27672,
          "lon": 103.84862
        },
        "btmRightPoint": {
          "lat": 1.27492,
          "lon": 103.85042
        }
      },
      "entryPoints": [
        {
          "type": "main",
          "position": {
            "lat": 1.27513,
            "lon": 103.84972
          }
        }
      ],
      "dataSources": {
        "geometry": {
          "id": ""
        }
      }
    },
    {
      "type": "POI",
      "id": "-fyKdgP1tqnBbO1cbpvl8Q",
      "score": 2.0835521221,
      "info": "search:ta:702009000437337-SG",
      "poi": {
        "name": "The Fullerton Bay Hotel Singapore",
        "phone": "+65 6333 8388",
        "categorySet": [
          {
            "id": 7376002
          }
        ],
        "categories": [
          "building",
          "important tourist attraction"
        ],
        "classifications": [
          {
            "code": "IMPORTANT_TOURIST_ATTRACTION",
            "names": [
              {
                "nameLocale": "en-US",
                "name": "important tourist attraction"
              },
              {
                "nameLocale": "en-US",
                "name": "building"
              }
            ]
          }
        ],
        "url": "www.fullertonbayhotel.com"
      },
      "address": {
        "streetName": "Collyer Ouay",
        "municipalitySubdivision": "Downtown Core",
        "municipality": "Singapore",
        "municipalitySecondarySubdivision": "",
        "countrySubdivision": "",
        "countrySubdivisionName": "",
        "countrySubdivisionCode": "",
        "postalCode": "04",
        "countryCode": "SG",
        "country": "Singapore",
        "countryCodeISO3": "SGP",
        "freeformAddress": "80 Collyer Ouay, Singapore, 049326",
        "localName": "Singapore"
      },
      "position": {
        "lat": 1.283956,
        "lon": 103.85327
      },
      "viewport": {
        "topLeftPoint": {
          "lat": 1.28486,
          "lon": 103.85237
        },
        "btmRightPoint": {
          "lat": 1.28306,
          "lon": 103.85417
        }
      },
      "entryPoints": [
        {
          "type": "main",
          "position": {
            "lat": 1.28394,
            "lon": 103.85312
          }
        }
      ],
      "dataSources": {
        "geometry": {
          "id": ""
        }
      }
    },
    {
      "type": "POI",
      "id": "WRDdL5ocRgo_uXgOdEBWaw",
      "score": 2.0835521221,
      "info": "search:ta:702009000083918-SG",
      "poi": {
        "name": "InterContinental Singapore Robertson Quay",
        "phone": "+65 6849 8686",
        "categorySet": [
          {
            "id": 7376002
          }
        ],
        "categories": [
          "building",
          "important tourist attraction"
        ],
        "classifications": [
          {
            "code": "IMPORTANT_TOURIST_ATTRACTION",
            "names": [
              {
                "nameLocale": "en-US",
                "name": "important tourist attraction"
              },
              {
                "nameLocale": "en-US",
                "name": "building"
              }
            ]
          }
        ],
        "url": "www.galleryhotel.com.sg"
      },
      "address": {
        "streetName": "Nanson Road",
        "municipalitySubdivision": "Singapore River",
        "municipality": "Singapore",
        "municipalitySecondarySubdivision": "",
        "countrySubdivision": "",
        "countrySubdivisionName": "",
        "countrySubdivisionCode": "",
        "postalCode": "23",
        "countryCode": "SG",
        "country": "Singapore",
        "countryCodeISO3": "SGP",
        "freeformAddress": "1 Nanson Road, Singapore, 238909",
        "localName": "Singapore"
      },
      "position": {
        "lat": 1.290147,
        "lon": 103.838678
      },
      "viewport": {
        "topLeftPoint": {
          "lat": 1.29105,
          "lon": 103.83778
        },
        "btmRightPoint": {
          "lat": 1.28925,
          "lon": 103.83958
        }
      },
      "entryPoints": [
        {
          "type": "main",
          "position": {
            "lat": 1.2901,
            "lon": 103.83889
          }
        }
      ],
      "dataSources": {
        "geometry": {
          "id": ""
        }
      }
    },
    {
      "type": "POI",
      "id": "C250Aj02kavoU_Owv8UGKA",
      "score": 2.0637090206,
      "info": "search:ta:360006003046934-ID",
      "poi": {
        "name": "Singapore Land Waterpark Batu Bara",
        "phone": "+62 852-9770-496",
        "categorySet": [
          {
            "id": 7376
          }
        ],
        "categories": [
          "important tourist attraction"
        ],
        "classifications": [
          {
            "code": "IMPORTANT_TOURIST_ATTRACTION",
            "names": [
              {
                "nameLocale": "en-US",
                "name": "important tourist attraction"
              }
            ]
          }
        ]
      },
      "address": {
        "streetName": "Jl. Lintas Sumatra No.Km",
        "municipality": "Batu Bara",
        "municipalitySecondarySubdivision": "Perkebunan Sei Balai",
        "countrySubdivision": "Sumatera Utara",
        "countrySubdivisionName": "Sumatera Utara",
        "countrySubdivisionCode": "SU",
        "postalCode": "21253",
        "countryCode": "ID",
        "country": "Indonesia",
        "countryCodeISO3": "IDN",
        "freeformAddress": "Jl. Lintas Sumatra No.Km 141, Batu Bara District, Sumatera Utara 21253",
        "localName": "Batu Bara"
      },
      "position": {
        "lat": 3.1168,
        "lon": 99.5845
      },
      "viewport": {
        "topLeftPoint": {
          "lat": 3.1177,
          "lon": 99.5836
        },
        "btmRightPoint": {
          "lat": 3.1159,
          "lon": 99.5854
        }
      },
      "entryPoints": [
        {
          "type": "main",
          "position": {
            "lat": 3.11633,
            "lon": 99.58398
          }
        }
      ],
      "dataSources": {
        "geometry": {
          "id": ""
        }
      }
    },
    {
      "type": "POI",
      "id": "XAofrSWx6KpnuNIujh0nuA",
      "score": 2.0637090206,
      "info": "search:ta:702007000024059-SG",
      "poi": {
        "name": "Statue: A Great Emporium Singapore",
        "categorySet": [
          {
            "id": 7376
          }
        ],
        "categories": [
          "important tourist attraction"
        ],
        "classifications": [
          {
            "code": "IMPORTANT_TOURIST_ATTRACTION",
            "names": [
              {
                "nameLocale": "en-US",
                "name": "important tourist attraction"
              }
            ]
          }
        ]
      },
      "address": {
        "streetName": "Rivervale Drive",
        "municipalitySubdivision": "Sengkang",
        "municipality": "Singapore",
        "municipalitySecondarySubdivision": "",
        "countrySubdivision": "",
        "countrySubdivisionName": "",
        "countrySubdivisionCode": "",
        "postalCode": "54",
        "countryCode": "SG",
        "country": "Singapore",
        "countryCodeISO3": "SGP",
        "freeformAddress": "Rivervale Drive, Singapore, 540118",
        "localName": "Singapore"
      },
      "position": {
        "lat": 1.38538,
        "lon": 103.90182
      },
      "viewport": {
        "topLeftPoint": {
          "lat": 1.38628,
          "lon": 103.90092
        },
        "btmRightPoint": {
          "lat": 1.38448,
          "lon": 103.90272
        }
      },
      "entryPoints": [
        {
          "type": "main",
          "position": {
            "lat": 1.38508,
            "lon": 103.9019
          }
        }
      ],
      "dataSources": {
        "geometry": {
          "id": ""
        }
      }
    },
    {
      "type": "POI",
      "id": "HMc4TW-Tkgu_zfcC3nfN1w",
      "score": 2.0637090206,
      "info": "search:ta:702009000442966-SG",
      "poi": {
        "name": "Underwater World Singapore \u0026 Dolphin Lagoon",
        "phone": "+65 6275 0030",
        "categorySet": [
          {
            "id": 7376002
          }
        ],
        "categories": [
          "building",
          "important tourist attraction"
        ],
        "classifications": [
          {
            "code": "IMPORTANT_TOURIST_ATTRACTION",
            "names": [
              {
                "nameLocale": "en-US",
                "name": "important tourist attraction"
              },
              {
                "nameLocale": "en-US",
                "name": "building"
              }
            ]
          }
        ],
        "url": "www.underwaterworld.com.sg"
      },
      "address": {
        "streetName": "Siloso Road",
        "municipalitySubdivision": "Sentosa",
        "municipality": "Singapore",
        "municipalitySecondarySubdivision": "",
        "countrySubdivision": "",
        "countrySubdivisionName": "",
        "countrySubdivisionCode": "",
        "postalCode": "09",
        "countryCode": "SG",
        "country": "Singapore",
        "countryCodeISO3": "SGP",
        "freeformAddress": "80 Siloso Road, Singapore, 098969",
        "localName": "Singapore"
      },
      "position": {
        "lat": 1.258567,
        "lon": 103.811213
      },
      "viewport": {
        "topLeftPoint": {
          "lat": 1.25947,
          "lon": 103.81031
        },
        "btmRightPoint": {
          "lat": 1.25767,
          "lon": 103.81211
        }
      },
      "entryPoints": [
        {
          "type": "main",
          "position": {
            "lat": 1.25809,
            "lon": 103.81094
          }
        }
      ],
      "dataSources": {
        "geometry": {
          "id": ""
        }
      }
    },
    {
      "type": "POI",
      "id": "UluOrsGCt1Zmn7sdhJm9hQ",
      "score": 2.0637090206,
      "info": "search:ta:702007000022063-SG",
      "poi": {
        "name": "11 Playfair Road Singapore 367986",
        "categorySet": [
          {
            "id": 7376
          }
        ],
        "categories": [
          "important tourist attraction"
        ],
        "classifications": [
          {
            "code": "IMPORTANT_TOURIST_ATTRACTION",
            "names": [
              {
                "nameLocale": "en-US",
                "name": "important tourist attraction"
              }
            ]
          }
        ],
        "url": "livingspring.org.sg"
      },
      "address": {
        "streetName": "Playfair Road",
        "municipalitySubdivision": "Toa Payoh",
        "municipality": "Singapore",
        "municipalitySecondarySubdivision": "",
        "countrySubdivision": "",
        "countrySubdivisionName": "",
        "countrySubdivisionCode": "",
        "postalCode": "36",
        "countryCode": "SG",
        "country": "Singapore",
        "countryCodeISO3": "SGP",
        "freeformAddress": "Playfair Road, Singapore, 367989",
        "localName": "Singapore"
      },
      "position": {
        "lat": 1.33378,
        "lon": 103.88636
      },
      "viewport": {
        "topLeftPoint": {
          "lat": 1.33468,
          "lon": 103.88546
        },
        "btmRightPoint": {
          "lat": 1.33288,
          "lon": 103.88726
        }
      },
      "entryPoints": [
        {
          "type": "main",
          "position": {
            "lat": 1.33388,
            "lon": 103.88665
          }
        }
      ],
      "dataSources": {
        "geometry": {
          "id": ""
        }
      }
    },
    {
      "type": "POI",
      "id": "RUJ9qRBcRVWug32CSCWPcw",
      "score": 2.0637090206,
      "info": "search:ta:702009000084624-SG",
      "poi": {
        "name": "Duck \u0026 Hippo Singapore Botanical Gardens",
        "phone": "+65 6338 6877",
        "categorySet": [
          {
            "id": 7376004
          }
        ],
        "categories": [
          "important tourist attraction",
          "natural tourist attraction"
        ],
        "classifications": [
          {
            "code": "IMPORTANT_TOURIST_ATTRACTION",
            "names": [
              {
                "nameLocale": "en-US",
                "name": "natural tourist attraction"
              },
              {
                "nameLocale": "en-US",
                "name": "important tourist attraction"
              }
            ]
          }
        ],
        "url": "www.ducktours.com.sg"
      },
      "address": {
        "streetName": "Cluny Road",
        "municipalitySubdivision": "Tanglin",
        "municipality": "Singapore",
        "municipalitySecondarySubdivision": "",
        "countrySubdivision": "",
        "countrySubdivisionName": "",
        "countrySubdivisionCode": "",
        "postalCode": "25",
        "countryCode": "SG",
        "country": "Singapore",
        "countryCodeISO3": "SGP",
        "freeformAddress": "1 Cluny Road, Singapore, 259569",
        "localName": "Singapore"
      },
      "position": {
        "lat": 1.315687,
        "lon": 103.816177
      },
      "viewport": {
        "topLeftPoint": {
          "lat": 1.31659,
          "lon": 103.81528
        },
        "btmRightPoint": {
          "lat": 1.31479,
          "lon": 103.81708
        }
      },
      "entryPoints": [
        {
          "type": "main",
          "position": {
            "lat": 1.31534,
            "lon": 103.81641
          }
        }
      ],
      "dataSources": {
        "geometry": {
          "id": ""
        }
      }
    },
    {
      "type": "POI",
      "id": "4egw0nROy1Al1pK8iwyQNA",
      "score": 2.0442399979,
      "info": "search:ta:360006002841368-ID",
      "poi": {
        "name": "Patung Merlion Singapore Dawuhan Millenial Garden",
        "categorySet": [
          {
            "id": 7376
          }
        ],
        "categories": [
          "important tourist attraction"
        ],
        "classifications": [
          {
            "code": "IMPORTANT_TOURIST_ATTRACTION",
            "names": [
              {
                "nameLocale": "en-US",
                "name": "important tourist attraction"
              }
            ]
          }
        ]
      },
      "address": {
        "streetName": "Lingk. Krajan Dawuhan Kec. Situbondo",
        "municipality": "Situbondo",
        "municipalitySecondarySubdivision": "Dawuhan",
        "countrySubdivision": "Jawa Timur",
        "countrySubdivisionName": "Jawa Timur",
        "countrySubdivisionCode": "JI",
        "postalCode": "68311",
        "countryCode": "ID",
        "country": "Indonesia",
        "countryCodeISO3": "IDN",
        "freeformAddress": "Lingk. Krajan Dawuhan Kec. Situbondo 3, Situbondo District, Jawa Timur 68311",
        "localName": "Situbondo"
      },
      "position": {
        "lat": -7.701914,
        "lon": 114.005624
      },
      "viewport": {
        "topLeftPoint": {
          "lat": -7.70101,
          "lon": 114.00472
        },
        "btmRightPoint": {
          "lat": -7.70281,
          "lon": 114.00653
        }
      },
      "entryPoints": [
        {
          "type": "main",
          "position": {
            "lat": -7.70187,
            "lon": 114.00555
          }
        }
      ],
      "dataSources": {
        "geometry": {
          "id": ""
        }
      }
    },
    {
      "type": "POI",
      "id": "cLq2YQY8Up9fAJCTf_YIeg",
      "score": 2.0442399979,
      "info": "search:ta:702007000026969-SG",
      "poi": {
        "name": "Foundation Stone of the Monument of the Early Founders of Singapore",
        "categorySet": [
          {
            "id": 7376003
          }
        ],
        "categories": [
          "important tourist attraction",
          "monument"
        ],
        "classifications": [
          {
            "code": "IMPORTANT_TOURIST_ATTRACTION",
            "names": [
              {
                "nameLocale": "en-US",
                "name": "important tourist attraction"
              },
              {
                "nameLocale": "en-US",
                "name": "monument"
              }
            ]
          }
        ]
      },
      "address": {
        "streetName": "Fullerton Square",
        "municipalitySubdivision": "Downtown Core",
        "municipality": "Singapore",
        "municipalitySecondarySubdivision": "",
        "countrySubdivision": "",
        "countrySubdivisionName": "",
        "countrySubdivisionCode": "",
        "postalCode": "04",
        "countryCode": "SG",
        "country": "Singapore",
        "countryCodeISO3": "SGP",
        "freeformAddress": "Fullerton Square, Singapore, 049178",
        "localName": "Singapore"
      },
      "position": {
        "lat": 1.2862,
        "lon": 103.85298
      },
      "viewport": {
        "topLeftPoint": {
          "lat": 1.2871,
          "lon": 103.85208
        },
        "btmRightPoint": {
          "lat": 1.2853,
          "lon": 103.85388
        }
      },
      "entryPoints": [
        {
          "type": "main",
          "position": {
            "lat": 1.28605,
            "lon": 103.85269
          }
        }
      ],
      "dataSources": {
        "geometry": {
          "id": ""
        }
      }
    },
    {
      "type": "POI",
      "id": "yNm9P2IE0vIMKV4DxZp5bw",
      "score": 2.0442399979,
      "info": "search:ta:702007000020324-SG",
      "poi": {
        "name": "Statue: From Chettiars To Financiers Singapore",
        "categorySet": [
          {
            "id": 7376
          }
        ],
        "categories": [
          "important tourist attraction"
        ],
        "classifications": [
          {
            "code": "IMPORTANT_TOURIST_ATTRACTION",
            "names": [
              {
                "nameLocale": "en-US",
                "name": "important tourist attraction"
              }
            ]
          }
        ]
      },
      "address": {
        "streetName": "Riviera Drive",
        "municipalitySubdivision": "Bedok",
        "municipality": "Singapore",
        "municipalitySecondarySubdivision": "",
        "countrySubdivision": "",
        "countrySubdivisionName": "",
        "countrySubdivisionCode": "",
        "postalCode": "46",
        "countryCode": "SG",
        "country": "Singapore",
        "countryCodeISO3": "SGP",
        "freeformAddress": "Riviera Drive, Singapore, 467197",
        "localName": "Singapore"
      },
      "position": {
        "lat": 1.31652,
        "lon": 103.943
      },
      "viewport": {
        "topLeftPoint": {
          "lat": 1.31742,
          "lon": 103.9421
        },
        "btmRightPoint": {
          "lat": 1.31562,
          "lon": 103.9439
        }
      },
      "entryPoints": [
        {
          "type": "main",
          "position": {
            "lat": 1.31632,
            "lon": 103.94302
          }
        }
      ],
      "dataSources": {
        "geometry": {
          "id": ""
        }
      }
    },
    {
      "type": "POI",
      "id": "kieinEo7FHRddlFU0FlJZg",
      "score": 2.0239999294,
      "info": "search:ta:784008000025759-AE",
      "poi": {
        "name": "Singapore",
        "categorySet": [
          {
            "id": 9376002
          }
        ],
        "categories": [
          "caf",
          "caf/pub"
        ],
        "classifications": [
          {
            "code": "CAFE_PUB",
            "names": [
              {
                "nameLocale": "en-US",
                "name": "caf/pub"
              },
              {
                "nameLocale": "en-US",
                "name": "caf"
              }
            ]
          }
        ]
      },
      "address": {
        "streetName": "Sidr Avenue",
        "municipalitySubdivision": "Madinat Al Maktoum",
        "municipality": "Dubai",
        "municipalitySecondarySubdivision": "Madinat Al Mataar",
        "countrySubdivision": "Dubai",
        "countrySubdivisionName": "Dubai",
        "countrySubdivisionCode": "DU",
        "postalCode": "",
        "countryCode": "AE",
        "country": "United Arab Emirates",
        "countryCodeISO3": "ARE",
        "freeformAddress": "201, Sidr Avenue, Madinat Al Maktoum, Dubai, Dubai",
        "localName": "Dubai"
      },
      "position": {
        "lat": 24.958929,
        "lon": 55.155858
      },
      "viewport": {
        "topLeftPoint": {
          "lat": 24.95983,
          "lon": 55.15487
        },
        "btmRightPoint": {
          "lat": 24.95803,
          "lon": 55.15685
        }
      },
      "entryPoints": [
        {
          "type": "main",
          "position": {
            "lat": 24.95881,
            "lon": 55.15561
          }
        }
      ],
      "dataSources": {
        "geometry": {
          "id": ""
        }
      }
    },
    {
      "type": "POI",
      "id": "kTLv0nswoAkOBFKb15O_vQ",
      "score": 2.0239999294,
      "info": "search:ta:056009001874472-BE",
      "poi": {
        "name": "Singapore",
        "phone": "+32 483 36 57 54",
        "categorySet": [
          {
            "id": 7315012
          }
        ],
        "categories": [
          "chinese",
          "restaurant"
        ],
        "classifications": [
          {
            "code": "RESTAURANT",
            "names": [
              {
                "nameLocale": "en-US",
                "name": "chinese"
              },
              {
                "nameLocale": "en-US",
                "name": "restaurant"
              }
            ]
          }
        ],
        "url": "www.singaporerestaurant.be"
      },
      "address": {
        "streetName": "August Van Putlei",
        "municipality": "Borsbeek",
        "municipalitySecondarySubdivision": "",
        "countrySubdivision": "Vlaams Gewest",
        "countrySubdivisionName": "Vlaams Gewest",
        "countrySubdivisionCode": "VLG",
        "postalCode": "2150",
        "countryCode": "BE",
        "country": "Belgi",
        "countryCodeISO3": "BEL",
        "freeformAddress": "August Van Putlei 3, 2150 Borsbeek",
        "localName": "Borsbeek"
      },
      "position": {
        "lat": 51.1962,
        "lon": 4.47975
      },
      "viewport": {
        "topLeftPoint": {
          "lat": 51.1971,
          "lon": 4.47831
        },
        "btmRightPoint": {
          "lat": 51.1953,
          "lon": 4.48119
        }
      },
      "entryPoints": [
        {
          "type": "main",
          "position": {
            "lat": 51.19611,
            "lon": 4.4797
          }
        }
      ],
      "dataSources": {
        "geometry": {
          "id": ""
        }
      }
    },